[
    {
        "address": "524 Soledad de Graciano Sanchez",
        "city": "Jiutepec",
        "closeHours": "6:35 PM",
        "country": "mexico",
        "dressCodeID": 3,
        "name": "Hamburguesas La perica",
        "openHours": "5:48 AM",
        "priceRangeMax": 40,
        "priceRangeMin": 8,
        "restID": 1,
        "state": "San Luis Potosi",
        "zip": 78210
    },
    {
        "address": "69 Tres De Mayo",
        "city": "s.l.p",
        "closeHours": "7:37 PM",
        "country": "mexico",
        "dressCodeID": 2,
        "name": "Hamburguesas La perica",
        "openHours": "5:53 AM",
        "priceRangeMax": 96,
        "priceRangeMin": 7,
        "restID": 2,
        "state": "SLP",
        "zip": 78214
    },
    {
        "address": "40 Norte Civac 1RA. Seccion",
        "city": "Cuernavaca",
        "closeHours": "11:03 PM",
        "country": "Mexico",
        "dressCodeID": 3,
        "name": "Hamburguesas La perica",
        "openHours": "11:14 AM",
        "priceRangeMax": 30,
        "priceRangeMin": 11,
        "restID": 3,
        "state": "san luis potos",
        "zip": 78200
    },
    {
        "address": "tampico",
        "city": "victoria",
        "closeHours": "7:32 PM",
        "country": "Mexico",
        "dressCodeID": 3,
        "name": "Pollo_Frito_Buenos_Aires",
        "openHours": "8:32 AM",
        "priceRangeMax": 53,
        "priceRangeMin": 14,
        "restID": 4,
        "state": "Tamaulipas",
        "zip": 62790
    },
    {
        "address": "69 Tres De Mayo",
        "city": "s.l.p",
        "closeHours": "6:39 PM",
        "country": "Mexico",
        "dressCodeID": 2,
        "name": "Pollo_Frito_Buenos_Aires",
        "openHours": "1:43 AM",
        "priceRangeMax": 75,
        "priceRangeMin": 17,
        "restID": 5,
        "state": null,
        "zip": 62290
    },
    {
        "address": "Mexico 810 Centro",
        "city": "victoria",
        "closeHours": "7:35 PM",
        "country": "Mexico",
        "dressCodeID": 2,
        "name": "Pollo_Frito_Buenos_Aires",
        "openHours": "11:26 AM",
        "priceRangeMax": 55,
        "priceRangeMin": 11,
        "restID": 6,
        "state": "Tamaulipas",
        "zip": 78214
    },
    {
        "address": "Ricardo B. Anaya",
        "city": "San Luis Potosi",
        "closeHours": "6:42 PM",
        "country": "Mexico",
        "dressCodeID": 1,
        "name": "Tortas y hamburguesas el gordo",
        "openHours": "8:02 AM",
        "priceRangeMax": 71,
        "priceRangeMin": 17,
        "restID": 7,
        "state": "San Luis Potosi",
        "zip": 62790
    },
    {
        "address": "Ricardo B. Anaya",
        "city": "San Luis Potosi",
        "closeHours": "7:29 PM",
        "country": "Mexico",
        "dressCodeID": 1,
        "name": "Tortas y hamburguesas el gordo",
        "openHours": "11:32 AM",
        "priceRangeMax": 72,
        "priceRangeMin": 14,
        "restID": 8,
        "state": "San Luis Potosi",
        "zip": 64000
    },
    {
        "address": "Ricardo B. Anaya",
        "city": "San Luis Potosi",
        "closeHours": "6:28 PM",
        "country": "Mexico",
        "dressCodeID": 4,
        "name": "Tortas y hamburguesas el gordo",
        "openHours": "2:34 AM",
        "priceRangeMax": 58,
        "priceRangeMin": 16,
        "restID": 9,
        "state": "San Luis Potosi",
        "zip": 74000
    },
    {
        "address": "Tangamanga 7 Tangamanga",
        "city": "san luis potosi ",
        "closeHours": "8:36 PM",
        "country": "Mexico",
        "dressCodeID": 3,
        "name": "Hamburguesas saul",
        "openHours": "1:54 AM",
        "priceRangeMax": 93,
        "priceRangeMin": 12,
        "restID": 10,
        "state": null,
        "zip": 78433
    },
    {
        "address": "tampico",
        "city": "San Luis Potosi",
        "closeHours": "6:46 PM",
        "country": "Mexico",
        "dressCodeID": 5,
        "name": "Hamburguesas saul",
        "openHours": "10:56 AM",
        "priceRangeMax": 58,
        "priceRangeMin": 15,
        "restID": 11,
        "state": "Tamaulipas",
        "zip": 78430
    },
    {
        "address": "Universidad 169",
        "city": "slp",
        "closeHours": "5:02 PM",
        "country": "Mexico",
        "dressCodeID": 3,
        "name": "Hamburguesas saul",
        "openHours": "2:18 AM",
        "priceRangeMax": 30,
        "priceRangeMin": 5,
        "restID": 12,
        "state": null,
        "zip": 78740
    },
    {
        "address": "40 Norte Civac 1RA. Seccion",
        "city": "Cuernavaca",
        "closeHours": "9:01 PM",
        "country": "Mexico",
        "dressCodeID": 5,
        "name": "crudalia",
        "openHours": "9:41 AM",
        "priceRangeMax": 58,
        "priceRangeMin": 8,
        "restID": 13,
        "state": "Morelos",
        "zip": 62170
    },
    {
        "address": "524 Soledad de Graciano Sanchez",
        "city": "Jiutepec",
        "closeHours": "11:58 PM",
        "country": "Mexico",
        "dressCodeID": 1,
        "name": "crudalia",
        "openHours": "1:11 AM",
        "priceRangeMax": 82,
        "priceRangeMin": 18,
        "restID": 14,
        "state": "S.L.P.",
        "zip": 62250
    },
    {
        "address": "36 Sur Civac",
        "city": "Ciudad Victoria",
        "closeHours": "10:05 PM",
        "country": "Mexico",
        "dressCodeID": 1,
        "name": "crudalia",
        "openHours": "7:47 AM",
        "priceRangeMax": 52,
        "priceRangeMin": 14,
        "restID": 15,
        "state": null,
        "zip": 62000
    },
    {
        "address": "av. seminario",
        "city": "Cd. Victoria",
        "closeHours": "5:25 PM",
        "country": "Mexico",
        "dressCodeID": 2,
        "name": "little pizza Emilio Portes Gil",
        "openHours": "5:05 AM",
        "priceRangeMax": 64,
        "priceRangeMin": 11,
        "restID": 16,
        "state": null,
        "zip": 62790
    },
    {
        "address": "avenida hivno nacional",
        "city": "Cuernavaca",
        "closeHours": "1:24 PM",
        "country": "Mexico",
        "dressCodeID": 2,
        "name": "little pizza Emilio Portes Gil",
        "openHours": "3:17 AM",
        "priceRangeMax": 25,
        "priceRangeMin": 9,
        "restID": 17,
        "state": "tamaulipas",
        "zip": 62790
    },
    {
        "address": "Av. V. Carranza",
        "city": "Ciudad Victoria",
        "closeHours": "8:39 PM",
        "country": "Mexico",
        "dressCodeID": 1,
        "name": "little pizza Emilio Portes Gil",
        "openHours": "5:31 AM",
        "priceRangeMax": 85,
        "priceRangeMin": 11,
        "restID": 18,
        "state": "S.L.P.",
        "zip": 64000
    },
    {
        "address": "Nereo Rodriguez Barragan 450 E Centro",
        "city": "Cuernavaca",
        "closeHours": "6:40 PM",
        "country": "Mexico",
        "dressCodeID": 4,
        "name": "Log Yin",
        "openHours": "10:25 AM",
        "priceRangeMax": 37,
        "priceRangeMin": 10,
        "restID": 19,
        "state": null,
        "zip": 78280
    },
    {
        "address": "Pascual M. Hernandez 210 Centro",
        "city": "s.l.p",
        "closeHours": "2:28 PM",
        "country": "Mexico",
        "dressCodeID": 1,
        "name": "Log Yin",
        "openHours": "4:00 AM",
        "priceRangeMax": 82,
        "priceRangeMin": 19,
        "restID": 20,
        "state": "Morelos",
        "zip": 78310
    },
    {
        "address": "Paseo de las Fuentes",
        "city": "san luis potos",
        "closeHours": "5:59 PM",
        "country": "Mexico",
        "dressCodeID": 5,
        "name": "Log Yin",
        "openHours": "6:33 AM",
        "priceRangeMax": 85,
        "priceRangeMin": 14,
        "restID": 21,
        "state": "SLP",
        "zip": 78390
    },
    {
        "address": "r.b. anaya esq. florencia",
        "city": "san luis potosi ",
        "closeHours": "2:57 PM",
        "country": "Mexico",
        "dressCodeID": 1,
        "name": "Log Yin",
        "openHours": "11:57 AM",
        "priceRangeMax": 98,
        "priceRangeMin": 17,
        "restID": 22,
        "state": null,
        "zip": 78396
    },
    {
        "address": "Plaza del Carmen",
        "city": "San Luis Potosi",
        "closeHours": "6:30 PM",
        "country": "Mexico",
        "dressCodeID": 5,
        "name": "Log Yin",
        "openHours": "2:41 AM",
        "priceRangeMax": 74,
        "priceRangeMin": 16,
        "restID": 23,
        "state": "Tamaulipas",
        "zip": 78395
    },
    {
        "address": "Miguel Barragan 46 Centro",
        "city": "Cd. Victoria",
        "closeHours": "6:36 PM",
        "country": "Mexico",
        "dressCodeID": 5,
        "name": "Log Yin",
        "openHours": "1:19 AM",
        "priceRangeMax": 31,
        "priceRangeMin": 16,
        "restID": 24,
        "state": "Morelos",
        "zip": 78269
    },
    {
        "address": "NICOLAS ZAPATA 300",
        "city": "Jiutepec",
        "closeHours": "4:23 PM",
        "country": "Mexico",
        "dressCodeID": 5,
        "name": "Log Yin",
        "openHours": "11:58 AM",
        "priceRangeMax": 77,
        "priceRangeMin": 13,
        "restID": 25,
        "state": null,
        "zip": 78290
    },
    {
        "address": "Ricardo B. Anaya",
        "city": "Soledad",
        "closeHours": "8:36 PM",
        "country": "Mexico",
        "dressCodeID": 2,
        "name": "Log Yin",
        "openHours": "2:13 AM",
        "priceRangeMax": 60,
        "priceRangeMin": 6,
        "restID": 26,
        "state": "Morelos",
        "zip": 78421
    },
    {
        "address": "Pascual M. Hernandez 240",
        "city": "s.l.p.",
        "closeHours": "7:26 PM",
        "country": "Mexico",
        "dressCodeID": 1,
        "name": "Log Yin",
        "openHours": "10:36 AM",
        "priceRangeMax": 78,
        "priceRangeMin": 5,
        "restID": 27,
        "state": "S.L.P.",
        "zip": 78349
    },
    {
        "address": "Munoz Sn Centro",
        "city": "Ciudad Victoria",
        "closeHours": "4:32 PM",
        "country": "Mexico",
        "dressCodeID": 2,
        "name": "Log Yin",
        "openHours": "8:12 AM",
        "priceRangeMax": 29,
        "priceRangeMin": 15,
        "restID": 28,
        "state": "S.L.P.",
        "zip": 78270
    },
    {
        "address": "Rayon sn col. Centro",
        "city": "slp",
        "closeHours": "3:37 PM",
        "country": "Mexico",
        "dressCodeID": 3,
        "name": "Log Yin",
        "openHours": "5:05 AM",
        "priceRangeMax": 39,
        "priceRangeMin": 11,
        "restID": 29,
        "state": null,
        "zip": 78399
    },
    {
        "address": "Mexico 810 Centro",
        "city": "Cd Victoria",
        "closeHours": "10:05 PM",
        "country": "Mexico",
        "dressCodeID": 4,
        "name": "Log Yin",
        "openHours": "4:07 AM",
        "priceRangeMax": 29,
        "priceRangeMin": 6,
        "restID": 30,
        "state": null,
        "zip": 78250
    },
    {
        "address": "agustin de iturbide",
        "city": "san luis potosi",
        "closeHours": "1:53 PM",
        "country": "Mexico",
        "dressCodeID": 4,
        "name": "rockabilly ",
        "openHours": "1:49 AM",
        "priceRangeMax": 94,
        "priceRangeMin": 5,
        "restID": 31,
        "state": "san luis potosi",
        "zip": 62170
    },
    {
        "address": "agustin de iturbide",
        "city": "san luis potosi",
        "closeHours": "2:14 PM",
        "country": "Mexico",
        "dressCodeID": 3,
        "name": "rockabilly ",
        "openHours": "8:03 AM",
        "priceRangeMax": 62,
        "priceRangeMin": 20,
        "restID": 32,
        "state": "san luis potosi",
        "zip": 62000
    },
    {
        "address": "Constitucion 200 Centro",
        "city": "san luis potosi",
        "closeHours": "8:35 PM",
        "country": "Mexico",
        "dressCodeID": 4,
        "name": "rockabilly ",
        "openHours": "10:21 AM",
        "priceRangeMax": 77,
        "priceRangeMin": 10,
        "restID": 33,
        "state": "san luis potosi",
        "zip": 62000
    },
    {
        "address": "Cuauhtemoc 455",
        "city": "San Luis Potosi",
        "closeHours": "8:48 PM",
        "country": "Mexico",
        "dressCodeID": 2,
        "name": "VIPS",
        "openHours": "5:09 AM",
        "priceRangeMax": 37,
        "priceRangeMin": 6,
        "restID": 34,
        "state": "San Luis Potosi",
        "zip": 78000
    },
    {
        "address": "De La Estrella 2005 Estrella de Oriente",
        "city": "San Luis Potosi",
        "closeHours": "9:29 PM",
        "country": "Mexico",
        "dressCodeID": 5,
        "name": "VIPS",
        "openHours": "10:46 AM",
        "priceRangeMax": 76,
        "priceRangeMin": 9,
        "restID": 35,
        "state": "San Luis Potosi",
        "zip": 78200
    },
    {
        "address": "De Guadalupe 460 San Miguelito",
        "city": "San Luis Potosi",
        "closeHours": "11:05 PM",
        "country": "Mexico",
        "dressCodeID": 2,
        "name": "VIPS",
        "openHours": "6:57 AM",
        "priceRangeMax": 83,
        "priceRangeMin": 18,
        "restID": 36,
        "state": "San Luis Potosi",
        "zip": 78038
    },
    {
        "address": "Santos Degollado 745 los Alamitos",
        "city": "san luis potos",
        "closeHours": "3:20 PM",
        "country": "Mexico",
        "dressCodeID": 5,
        "name": "emilianos",
        "openHours": "7:13 AM",
        "priceRangeMax": 83,
        "priceRangeMin": 19,
        "restID": 37,
        "state": "S.L.P.",
        "zip": 78421
    },
    {
        "address": "Rayon sn col. Centro",
        "city": "san luis potos",
        "closeHours": "4:53 PM",
        "country": "Mexico",
        "dressCodeID": 1,
        "name": "emilianos",
        "openHours": "1:10 AM",
        "priceRangeMax": 92,
        "priceRangeMin": 19,
        "restID": 38,
        "state": "S.L.P.",
        "zip": 78310
    },
    {
        "address": "sevilla y olmedo 715 a",
        "city": "san luis potos",
        "closeHours": "8:29 PM",
        "country": "Mexico",
        "dressCodeID": 4,
        "name": "emilianos",
        "openHours": "4:26 AM",
        "priceRangeMax": 49,
        "priceRangeMin": 8,
        "restID": 39,
        "state": "Tamaulipas",
        "zip": 78433
    },
    {
        "address": "Pascual M. Hernandez 240",
        "city": "san luis potos",
        "closeHours": "1:36 PM",
        "country": "Mexico",
        "dressCodeID": 2,
        "name": "emilianos",
        "openHours": "3:59 AM",
        "priceRangeMax": 97,
        "priceRangeMin": 9,
        "restID": 40,
        "state": "S.L.P.",
        "zip": 78269
    },
    {
        "address": "Ricardo B. Anaya 2700 Estrella de Oriente",
        "city": "san luis potos",
        "closeHours": "8:03 PM",
        "country": "Mexico",
        "dressCodeID": 5,
        "name": "emilianos",
        "openHours": "11:13 AM",
        "priceRangeMax": 31,
        "priceRangeMin": 10,
        "restID": 41,
        "state": null,
        "zip": 78390
    },
    {
        "address": "Pascual M. Hernandez 210 Centro",
        "city": "victoria ",
        "closeHours": "6:13 PM",
        "country": "Mexico",
        "dressCodeID": 1,
        "name": "emilianos",
        "openHours": "4:17 AM",
        "priceRangeMax": 43,
        "priceRangeMin": 20,
        "restID": 42,
        "state": "Morelos",
        "zip": 78250
    },
    {
        "address": "Paseo de las Fuentes",
        "city": "san luis potos",
        "closeHours": "3:47 PM",
        "country": "Mexico",
        "dressCodeID": 4,
        "name": "emilianos",
        "openHours": "6:19 AM",
        "priceRangeMax": 22,
        "priceRangeMin": 6,
        "restID": 43,
        "state": null,
        "zip": 78270
    },
    {
        "address": "Ricardo B. Anaya",
        "city": "san luis potos",
        "closeHours": "7:20 PM",
        "country": "Mexico",
        "dressCodeID": 2,
        "name": "emilianos",
        "openHours": "1:14 AM",
        "priceRangeMax": 48,
        "priceRangeMin": 19,
        "restID": 44,
        "state": "SLP",
        "zip": 78349
    },
    {
        "address": "Plaza del Carmen",
        "city": "san luis potos",
        "closeHours": "10:21 PM",
        "country": "Mexico",
        "dressCodeID": 2,
        "name": "emilianos",
        "openHours": "5:40 AM",
        "priceRangeMax": 51,
        "priceRangeMin": 6,
        "restID": 45,
        "state": null,
        "zip": 78280
    },
    {
        "address": "Rio Mayo Colonia Vista Hermosa Esq. Rio Balsas",
        "city": "san luis potos",
        "closeHours": "5:46 PM",
        "country": "Mexico",
        "dressCodeID": 2,
        "name": "emilianos",
        "openHours": "2:52 AM",
        "priceRangeMax": 47,
        "priceRangeMin": 14,
        "restID": 46,
        "state": "S.L.P.",
        "zip": 78396
    },
    {
        "address": "Rio Papaloapan 265 Lomas de San Luis (3)",
        "city": "san luis potos",
        "closeHours": "10:27 PM",
        "country": "Mexico",
        "dressCodeID": 5,
        "name": "emilianos",
        "openHours": "2:15 AM",
        "priceRangeMax": 79,
        "priceRangeMin": 11,
        "restID": 47,
        "state": "Morelos",
        "zip": 78399
    },
    {
        "address": "r.b. anaya esq. florencia",
        "city": "san luis potos",
        "closeHours": "10:13 PM",
        "country": "Mexico",
        "dressCodeID": 2,
        "name": "emilianos",
        "openHours": "6:17 AM",
        "priceRangeMax": 41,
        "priceRangeMin": 17,
        "restID": 48,
        "state": "Morelos",
        "zip": 78290
    },
    {
        "address": "Soledad Sn Arboledas de Soledad",
        "city": "san luis potos",
        "closeHours": "8:18 PM",
        "country": "Mexico",
        "dressCodeID": 4,
        "name": "emilianos",
        "openHours": "2:56 AM",
        "priceRangeMax": 46,
        "priceRangeMin": 17,
        "restID": 49,
        "state": null,
        "zip": 78740
    },
    {
        "address": "Satelite 606 Satelite",
        "city": "san luis potos",
        "closeHours": "8:40 PM",
        "country": "Mexico",
        "dressCodeID": 3,
        "name": "emilianos",
        "openHours": "1:58 AM",
        "priceRangeMax": 41,
        "priceRangeMin": 15,
        "restID": 50,
        "state": "SLP",
        "zip": 78430
    },
    {
        "address": "Rio Mayo 17 Vista Hermosa",
        "city": "san luis potos",
        "closeHours": "11:47 PM",
        "country": "Mexico",
        "dressCodeID": 3,
        "name": "emilianos",
        "openHours": "2:44 AM",
        "priceRangeMax": 92,
        "priceRangeMin": 20,
        "restID": 51,
        "state": "Morelos",
        "zip": 78395
    },
    {
        "address": "Estatuto Juridico 1040 Burocratas",
        "city": "san luis potosi",
        "closeHours": "8:05 PM",
        "country": "Mexico",
        "dressCodeID": 2,
        "name": "tacos los volcanes",
        "openHours": "1:07 AM",
        "priceRangeMax": 24,
        "priceRangeMin": 11,
        "restID": 52,
        "state": "san luis potos",
        "zip": 78270
    },
    {
        "address": "Ignacio Allende 785 Centro",
        "city": "san luis potosi",
        "closeHours": "3:39 PM",
        "country": "Mexico",
        "dressCodeID": 3,
        "name": "tacos los volcanes",
        "openHours": "7:25 AM",
        "priceRangeMax": 46,
        "priceRangeMin": 16,
        "restID": 53,
        "state": "san luis potos",
        "zip": 78433
    },
    {
        "address": "frente al tecnologico",
        "city": "san luis potosi",
        "closeHours": "4:41 PM",
        "country": "Mexico",
        "dressCodeID": 5,
        "name": "tacos los volcanes",
        "openHours": "1:24 AM",
        "priceRangeMax": 46,
        "priceRangeMin": 9,
        "restID": 54,
        "state": "san luis potos",
        "zip": 78349
    },
    {
        "address": "Interior Internado Palmira SN",
        "city": "san luis potosi",
        "closeHours": "8:43 PM",
        "country": "Mexico",
        "dressCodeID": 2,
        "name": "tacos los volcanes",
        "openHours": "3:51 AM",
        "priceRangeMax": 53,
        "priceRangeMin": 13,
        "restID": 55,
        "state": "san luis potos",
        "zip": 79300
    },
    {
        "address": "Francisco I. Madero 145 Centro",
        "city": "san luis potosi",
        "closeHours": "10:27 PM",
        "country": "Mexico",
        "dressCodeID": 2,
        "name": "tacos los volcanes",
        "openHours": "1:40 AM",
        "priceRangeMax": 73,
        "priceRangeMin": 17,
        "restID": 56,
        "state": "san luis potos",
        "zip": 78290
    },
    {
        "address": "Ignacio Aldama 300 Centro",
        "city": "san luis potosi",
        "closeHours": "5:26 PM",
        "country": "Mexico",
        "dressCodeID": 3,
        "name": "tacos los volcanes",
        "openHours": "10:54 AM",
        "priceRangeMax": 22,
        "priceRangeMin": 18,
        "restID": 57,
        "state": "san luis potos",
        "zip": 78430
    },
    {
        "address": "General Mariano Arista 1205 Barrio de Tequisquiap",
        "city": "san luis potosi",
        "closeHours": "3:16 PM",
        "country": "Mexico",
        "dressCodeID": 2,
        "name": "tacos los volcanes",
        "openHours": "11:27 AM",
        "priceRangeMax": 24,
        "priceRangeMin": 16,
        "restID": 58,
        "state": "san luis potos",
        "zip": 78390
    },
    {
        "address": "Himno Nacional 2104 Tangamanga",
        "city": "san luis potosi",
        "closeHours": "1:34 PM",
        "country": "Mexico",
        "dressCodeID": 5,
        "name": "tacos los volcanes",
        "openHours": "10:32 AM",
        "priceRangeMax": 27,
        "priceRangeMin": 8,
        "restID": 59,
        "state": "san luis potos",
        "zip": 78399
    },
    {
        "address": "Himno nacional esq. Blvd. Juarez",
        "city": "san luis potosi",
        "closeHours": "7:01 PM",
        "country": "Mexico",
        "dressCodeID": 2,
        "name": "tacos los volcanes",
        "openHours": "7:08 AM",
        "priceRangeMax": 59,
        "priceRangeMin": 6,
        "restID": 60,
        "state": "san luis potos",
        "zip": 78421
    },
    {
        "address": "Federal Mexico - Acapulco 10 3 de Mayo",
        "city": "san luis potosi",
        "closeHours": "8:16 PM",
        "country": "Mexico",
        "dressCodeID": 4,
        "name": "tacos los volcanes",
        "openHours": "11:31 AM",
        "priceRangeMax": 58,
        "priceRangeMin": 18,
        "restID": 61,
        "state": "san luis potos",
        "zip": 78280
    },
    {
        "address": "esquina santos degollado y leon guzman",
        "city": "san luis potosi",
        "closeHours": "10:50 PM",
        "country": "Mexico",
        "dressCodeID": 4,
        "name": "tacos los volcanes",
        "openHours": "8:48 AM",
        "priceRangeMax": 28,
        "priceRangeMin": 10,
        "restID": 62,
        "state": "san luis potos",
        "zip": 78269
    },
    {
        "address": "Himno Nacional 100 Avenida",
        "city": "san luis potosi",
        "closeHours": "4:46 PM",
        "country": "Mexico",
        "dressCodeID": 2,
        "name": "tacos los volcanes",
        "openHours": "1:11 AM",
        "priceRangeMax": 39,
        "priceRangeMin": 16,
        "restID": 63,
        "state": "san luis potos",
        "zip": 78396
    },
    {
        "address": "Francisco I. Madero 215",
        "city": "san luis potosi",
        "closeHours": "6:46 PM",
        "country": "Mexico",
        "dressCodeID": 1,
        "name": "tacos los volcanes",
        "openHours": "2:11 AM",
        "priceRangeMax": 98,
        "priceRangeMin": 9,
        "restID": 64,
        "state": "san luis potos",
        "zip": 78310
    },
    {
        "address": "Industrias 908 Valle Dorado",
        "city": "san luis potosi",
        "closeHours": "6:12 PM",
        "country": "Mexico",
        "dressCodeID": 3,
        "name": "tacos los volcanes",
        "openHours": "1:38 AM",
        "priceRangeMax": 26,
        "priceRangeMin": 13,
        "restID": 65,
        "state": "san luis potos",
        "zip": 78740
    },
    {
        "address": "Guajardo Sn San Luis Potosi Centro",
        "city": "san luis potosi",
        "closeHours": "4:56 PM",
        "country": "Mexico",
        "dressCodeID": 3,
        "name": "tacos los volcanes",
        "openHours": "4:10 AM",
        "priceRangeMax": 24,
        "priceRangeMin": 20,
        "restID": 66,
        "state": "san luis potos",
        "zip": 78395
    },
    {
        "address": "Domingo 10 711 El Empleado",
        "city": "Jiutepec",
        "closeHours": "5:28 PM",
        "country": "Mexico",
        "dressCodeID": 2,
        "name": "Giovannis",
        "openHours": "1:51 AM",
        "priceRangeMax": 34,
        "priceRangeMin": 18,
        "restID": 67,
        "state": "Morelos",
        "zip": 62170
    },
    {
        "address": "Emiliano Zapata Col. Tres de Mayo",
        "city": "Jiutepec",
        "closeHours": "4:12 PM",
        "country": "Mexico",
        "dressCodeID": 4,
        "name": "Giovannis",
        "openHours": "10:53 AM",
        "priceRangeMax": 21,
        "priceRangeMin": 17,
        "restID": 68,
        "state": "Morelos",
        "zip": 62250
    },
    {
        "address": "40 Norte Civac 1RA. Seccion",
        "city": "Jiutepec",
        "closeHours": "5:02 PM",
        "country": "Mexico",
        "dressCodeID": 5,
        "name": "Giovannis",
        "openHours": "8:11 AM",
        "priceRangeMax": 75,
        "priceRangeMin": 14,
        "restID": 69,
        "state": "Morelos",
        "zip": 62790
    },
    {
        "address": "Lateral Salvador Nava Martinez 3145",
        "city": "Cd Victoria",
        "closeHours": "11:12 PM",
        "country": "Mexico",
        "dressCodeID": 4,
        "name": "tacos de la estacion",
        "openHours": "11:53 AM",
        "priceRangeMax": 61,
        "priceRangeMin": 13,
        "restID": 70,
        "state": "S.L.P.",
        "zip": 78740
    },
    {
        "address": "lic. Emilio portes gil",
        "city": "Ciudad Victoria",
        "closeHours": "10:18 PM",
        "country": "Mexico",
        "dressCodeID": 4,
        "name": "tacos de la estacion",
        "openHours": "9:55 AM",
        "priceRangeMax": 82,
        "priceRangeMin": 18,
        "restID": 71,
        "state": "Morelos",
        "zip": 87018
    },
    {
        "address": "Libramiento Burgos Colonia Las Animas",
        "city": "Cd. Victoria",
        "closeHours": "5:11 PM",
        "country": "Mexico",
        "dressCodeID": 3,
        "name": "tacos de la estacion",
        "openHours": "5:04 AM",
        "priceRangeMax": 81,
        "priceRangeMin": 14,
        "restID": 72,
        "state": null,
        "zip": 79300
    },
    {
        "address": "Venustiano Carranza 2175 Jardin",
        "city": "Cuernavaca",
        "closeHours": "7:39 PM",
        "country": "Mexico",
        "dressCodeID": 3,
        "name": "Subway",
        "openHours": "9:16 AM",
        "priceRangeMax": 44,
        "priceRangeMin": 15,
        "restID": 73,
        "state": "Tamaulipas",
        "zip": 78290
    },
    {
        "address": "Venustiano Carranza 303 Centro",
        "city": "Cuernavaca",
        "closeHours": "1:25 PM",
        "country": "Mexico",
        "dressCodeID": 1,
        "name": "Subway",
        "openHours": "2:26 AM",
        "priceRangeMax": 60,
        "priceRangeMin": 17,
        "restID": 74,
        "state": null,
        "zip": 78310
    },
    {
        "address": "Venustiano Carranza 560 Centro",
        "city": "Cuernavaca",
        "closeHours": "8:53 PM",
        "country": "Mexico",
        "dressCodeID": 3,
        "name": "Subway",
        "openHours": "10:24 AM",
        "priceRangeMax": 66,
        "priceRangeMin": 8,
        "restID": 75,
        "state": null,
        "zip": 78349
    },
    {
        "address": "Agricultura 595 del Valle",
        "city": "s.l.p.",
        "closeHours": "5:33 PM",
        "country": "Mexico",
        "dressCodeID": 3,
        "name": "Taqueria EL amigo ",
        "openHours": "4:48 AM",
        "priceRangeMax": 80,
        "priceRangeMin": 10,
        "restID": 76,
        "state": "Tamaulipas",
        "zip": 78220
    },
    {
        "address": "agustin de iturbide",
        "city": "san luis potos",
        "closeHours": "5:03 PM",
        "country": "Mexico",
        "dressCodeID": 2,
        "name": "Taqueria EL amigo ",
        "openHours": "6:58 AM",
        "priceRangeMax": 99,
        "priceRangeMin": 13,
        "restID": 77,
        "state": "Tamaulipas",
        "zip": 78240
    },
    {
        "address": "Alhondiga 62 Centro",
        "city": "San Luis Potosi",
        "closeHours": "2:08 PM",
        "country": "Mexico",
        "dressCodeID": 2,
        "name": "Taqueria EL amigo ",
        "openHours": "8:10 AM",
        "priceRangeMax": 50,
        "priceRangeMin": 10,
        "restID": 78,
        "state": "Tamaulipas",
        "zip": 78250
    },
    {
        "address": "Lateral Salvador Nava Martinez 3145",
        "city": "San Luis Potosi",
        "closeHours": "4:00 PM",
        "country": "Mexico",
        "dressCodeID": 1,
        "name": "Restaurant de Mariscos de Picon",
        "openHours": "8:58 AM",
        "priceRangeMax": 99,
        "priceRangeMin": 5,
        "restID": 79,
        "state": "SLP",
        "zip": 74000
    },
    {
        "address": "Libramiento Burgos Colonia Las Animas",
        "city": "San Luis Potosi",
        "closeHours": "11:28 PM",
        "country": "Mexico",
        "dressCodeID": 1,
        "name": "Restaurant de Mariscos de Picon",
        "openHours": "6:25 AM",
        "priceRangeMax": 28,
        "priceRangeMin": 18,
        "restID": 80,
        "state": "SLP",
        "zip": 78000
    },
    {
        "address": "lic. Emilio portes gil",
        "city": "San Luis Potosi",
        "closeHours": "5:25 PM",
        "country": "Mexico",
        "dressCodeID": 5,
        "name": "Restaurant de Mariscos de Picon",
        "openHours": "1:00 AM",
        "priceRangeMax": 90,
        "priceRangeMin": 14,
        "restID": 81,
        "state": "SLP",
        "zip": 78038
    },
    {
        "address": "Satelite 606 Satelite",
        "city": "s.l.p",
        "closeHours": "2:44 PM",
        "country": "Mexico",
        "dressCodeID": 4,
        "name": "Carreton de Flautas y Migadas",
        "openHours": "8:31 AM",
        "priceRangeMax": 33,
        "priceRangeMin": 19,
        "restID": 82,
        "state": "Morelos",
        "zip": 78396
    },
    {
        "address": "sevilla y olmedo 715 a",
        "city": "s.l.p.",
        "closeHours": "4:17 PM",
        "country": "Mexico",
        "dressCodeID": 3,
        "name": "Carreton de Flautas y Migadas",
        "openHours": "10:20 AM",
        "priceRangeMax": 54,
        "priceRangeMin": 18,
        "restID": 83,
        "state": "S.L.P.",
        "zip": 78399
    },
    {
        "address": "Santos Degollado 745 los Alamitos",
        "city": "Jiutepec",
        "closeHours": "10:29 PM",
        "country": "Mexico",
        "dressCodeID": 2,
        "name": "Carreton de Flautas y Migadas",
        "openHours": "1:10 AM",
        "priceRangeMax": 100,
        "priceRangeMin": 13,
        "restID": 84,
        "state": null,
        "zip": 78395
    },
    {
        "address": "Av. Coral",
        "city": "San Luis Potosi",
        "closeHours": "7:20 PM",
        "country": "Mexico",
        "dressCodeID": 1,
        "name": "Restaurante Versalles",
        "openHours": "6:00 AM",
        "priceRangeMax": 23,
        "priceRangeMin": 11,
        "restID": 85,
        "state": "SLP",
        "zip": 78214
    },
    {
        "address": "Francisco I. Madero 145 Centro",
        "city": "San Luis Potosi",
        "closeHours": "11:10 PM",
        "country": "Mexico",
        "dressCodeID": 3,
        "name": "Restaurante Versalles",
        "openHours": "3:00 AM",
        "priceRangeMax": 96,
        "priceRangeMin": 19,
        "restID": 86,
        "state": "SLP",
        "zip": 78000
    },
    {
        "address": "Soledad Sn Arboledas de Soledad",
        "city": "san luis potos",
        "closeHours": "9:58 PM",
        "country": "Mexico",
        "dressCodeID": 1,
        "name": "Restaurante Versalles",
        "openHours": "8:08 AM",
        "priceRangeMax": 65,
        "priceRangeMin": 20,
        "restID": 87,
        "state": "SLP",
        "zip": 78421
    },
    {
        "address": "agustin de iturbide",
        "city": "san luis potos",
        "closeHours": "5:14 PM",
        "country": "Mexico",
        "dressCodeID": 2,
        "name": "Abondance Restaurante Bar",
        "openHours": "7:04 AM",
        "priceRangeMax": 40,
        "priceRangeMin": 19,
        "restID": 88,
        "state": "SLP",
        "zip": 62250
    },
    {
        "address": "Alhondiga 62 Centro",
        "city": "San Luis Potosi",
        "closeHours": "4:10 PM",
        "country": "Mexico",
        "dressCodeID": 5,
        "name": "Abondance Restaurante Bar",
        "openHours": "1:14 AM",
        "priceRangeMax": 53,
        "priceRangeMin": 19,
        "restID": 89,
        "state": "SLP",
        "zip": 62290
    },
    {
        "address": "Anahuac 805",
        "city": "san luis potosi ",
        "closeHours": "6:25 PM",
        "country": "Mexico",
        "dressCodeID": 4,
        "name": "Abondance Restaurante Bar",
        "openHours": "11:02 AM",
        "priceRangeMax": 23,
        "priceRangeMin": 10,
        "restID": 90,
        "state": "SLP",
        "zip": 78280
    },
    {
        "address": "Plaza del Carmen",
        "city": "Cuernavaca",
        "closeHours": "6:51 PM",
        "country": "Mexico",
        "dressCodeID": 1,
        "name": "El cotorreo",
        "openHours": "10:53 AM",
        "priceRangeMax": 31,
        "priceRangeMin": 6,
        "restID": 91,
        "state": "Morelos",
        "zip": 78310
    },
    {
        "address": "Ricardo B. Anaya",
        "city": "Cuernavaca",
        "closeHours": "7:48 PM",
        "country": "Mexico",
        "dressCodeID": 1,
        "name": "El cotorreo",
        "openHours": "9:03 AM",
        "priceRangeMax": 93,
        "priceRangeMin": 17,
        "restID": 92,
        "state": "Morelos",
        "zip": 78395
    },
    {
        "address": "Paseo de las Fuentes",
        "city": "Cuernavaca",
        "closeHours": "7:23 PM",
        "country": "Mexico",
        "dressCodeID": 3,
        "name": "El cotorreo",
        "openHours": "10:59 AM",
        "priceRangeMax": 62,
        "priceRangeMin": 13,
        "restID": 93,
        "state": "Morelos",
        "zip": 78290
    },
    {
        "address": "r.b. anaya esq. florencia",
        "city": "Cuernavaca",
        "closeHours": "10:18 PM",
        "country": "Mexico",
        "dressCodeID": 2,
        "name": "El cotorreo",
        "openHours": "4:30 AM",
        "priceRangeMax": 80,
        "priceRangeMin": 19,
        "restID": 94,
        "state": "Morelos",
        "zip": 78349
    },
    {
        "address": "Pascual M. Hernandez 240",
        "city": "Cuernavaca",
        "closeHours": "1:07 PM",
        "country": "Mexico",
        "dressCodeID": 5,
        "name": "El cotorreo",
        "openHours": "2:54 AM",
        "priceRangeMax": 47,
        "priceRangeMin": 16,
        "restID": 95,
        "state": "Morelos",
        "zip": 78280
    },
    {
        "address": "Rayon sn col. Centro",
        "city": "Cuernavaca",
        "closeHours": "10:27 PM",
        "country": "Mexico",
        "dressCodeID": 2,
        "name": "El cotorreo",
        "openHours": "2:08 AM",
        "priceRangeMax": 90,
        "priceRangeMin": 9,
        "restID": 96,
        "state": "Morelos",
        "zip": 78390
    },
    {
        "address": "Federal Mexico - Acapulco 10 3 de Mayo",
        "city": "Cuernavaca",
        "closeHours": "1:37 PM",
        "country": "Mexico",
        "dressCodeID": 2,
        "name": "Cafeteria cenidet",
        "openHours": "5:01 AM",
        "priceRangeMax": 39,
        "priceRangeMin": 7,
        "restID": 97,
        "state": "Morelos",
        "zip": 62790
    },
    {
        "address": "Lomas del Mirador",
        "city": "Cuernavaca",
        "closeHours": "3:59 PM",
        "country": "Mexico",
        "dressCodeID": 2,
        "name": "Cafeteria cenidet",
        "openHours": "10:42 AM",
        "priceRangeMax": 97,
        "priceRangeMin": 8,
        "restID": 98,
        "state": "S.L.P.",
        "zip": 62790
    },
    {
        "address": "Francisco I. Madero 145 Centro",
        "city": "Cuernavaca",
        "closeHours": "6:35 PM",
        "country": "Mexico",
        "dressCodeID": 5,
        "name": "Cafeteria cenidet",
        "openHours": "10:09 AM",
        "priceRangeMax": 56,
        "priceRangeMin": 10,
        "restID": 99,
        "state": "Morelos",
        "zip": 64000
    },
    {
        "address": "frente al tecnologico",
        "city": "victoria",
        "closeHours": "2:52 PM",
        "country": "Mexico",
        "dressCodeID": 2,
        "name": "puesto de gorditas",
        "openHours": "10:31 AM",
        "priceRangeMax": 87,
        "priceRangeMin": 8,
        "restID": 100,
        "state": "tamaulipas",
        "zip": 78421
    },
    {
        "address": "Rio Mayo Colonia Vista Hermosa Esq. Rio Balsas",
        "city": "victoria",
        "closeHours": "4:11 PM",
        "country": "Mexico",
        "dressCodeID": 1,
        "name": "puesto de gorditas",
        "openHours": "6:49 AM",
        "priceRangeMax": 56,
        "priceRangeMin": 11,
        "restID": 101,
        "state": "tamaulipas",
        "zip": 78220
    },
    {
        "address": "Zaragoza entre Francisco Zarco y Lopez Velarde",
        "city": "victoria",
        "closeHours": "8:41 PM",
        "country": "Mexico",
        "dressCodeID": 2,
        "name": "puesto de gorditas",
        "openHours": "6:28 AM",
        "priceRangeMax": 73,
        "priceRangeMin": 8,
        "restID": 102,
        "state": "tamaulipas",
        "zip": 78399
    },
    {
        "address": "Munoz Sn Centro",
        "city": "san luis potos",
        "closeHours": "7:11 PM",
        "country": "Mexico",
        "dressCodeID": 5,
        "name": "puesto de tacos",
        "openHours": "6:42 AM",
        "priceRangeMax": 36,
        "priceRangeMin": 10,
        "restID": 103,
        "state": "S.L.P.",
        "zip": 78038
    },
    {
        "address": "Mexico 810 Centro",
        "city": "s.l.p",
        "closeHours": "5:47 PM",
        "country": "Mexico",
        "dressCodeID": 2,
        "name": "puesto de tacos",
        "openHours": "5:28 AM",
        "priceRangeMax": 96,
        "priceRangeMin": 7,
        "restID": 104,
        "state": null,
        "zip": 74000
    },
    {
        "address": "Miguel Barragan 46 Centro",
        "city": "s.l.p.",
        "closeHours": "1:42 PM",
        "country": "Mexico",
        "dressCodeID": 1,
        "name": "puesto de tacos",
        "openHours": "1:07 AM",
        "priceRangeMax": 65,
        "priceRangeMin": 14,
        "restID": 105,
        "state": "Morelos",
        "zip": 78000
    },
    {
        "address": "Tangamanga 7 Tangamanga",
        "city": "San Luis Potosi",
        "closeHours": "10:48 PM",
        "country": "Mexico",
        "dressCodeID": 1,
        "name": "Cafe Chaires",
        "openHours": "5:19 AM",
        "priceRangeMax": 53,
        "priceRangeMin": 10,
        "restID": 106,
        "state": "S.L.P.",
        "zip": 87018
    },
    {
        "address": "tampico",
        "city": "San Luis Potosi",
        "closeHours": "8:50 PM",
        "country": "Mexico",
        "dressCodeID": 2,
        "name": "Cafe Chaires",
        "openHours": "5:36 AM",
        "priceRangeMax": 27,
        "priceRangeMin": 8,
        "restID": 107,
        "state": "Morelos",
        "zip": 79300
    },
    {
        "address": "Universidad 169",
        "city": "San Luis Potosi",
        "closeHours": "4:26 PM",
        "country": "Mexico",
        "dressCodeID": 4,
        "name": "Cafe Chaires",
        "openHours": "5:25 AM",
        "priceRangeMax": 21,
        "priceRangeMin": 9,
        "restID": 108,
        "state": "",
        "zip": 62790
    },
    {
        "address": "Cordillera de Los Alpes 675 Loma Verde",
        "city": "victoria ",
        "closeHours": "5:00 PM",
        "country": "Mexico",
        "dressCodeID": 5,
        "name": "Gorditas Doa Gloria",
        "openHours": "9:31 AM",
        "priceRangeMax": 36,
        "priceRangeMin": 13,
        "restID": 109,
        "state": "san luis potosi",
        "zip": 64000
    },
    {
        "address": "Costado Sur Central Camionera Km 2",
        "city": "san luis potosi",
        "closeHours": "3:17 PM",
        "country": "Mexico",
        "dressCodeID": 2,
        "name": "Gorditas Doa Gloria",
        "openHours": "3:08 AM",
        "priceRangeMax": 33,
        "priceRangeMin": 16,
        "restID": 110,
        "state": "san luis potosi",
        "zip": 74000
    },
    {
        "address": "Rio Papaloapan 265 Lomas de San Luis (3)",
        "city": "Cuernavaca",
        "closeHours": "1:39 PM",
        "country": "Mexico",
        "dressCodeID": 4,
        "name": "Gorditas Doa Gloria",
        "openHours": "9:43 AM",
        "priceRangeMax": 46,
        "priceRangeMin": 12,
        "restID": 111,
        "state": null,
        "zip": 78390
    },
    {
        "address": "lic. Emilio portes gil",
        "city": "Cuernavaca",
        "closeHours": "4:11 PM",
        "country": "Mexico",
        "dressCodeID": 1,
        "name": "McDonalds Centro",
        "openHours": "8:21 AM",
        "priceRangeMax": 76,
        "priceRangeMin": 13,
        "restID": 112,
        "state": "Morelos",
        "zip": 78214
    },
    {
        "address": "Mexico 2015 Providencia",
        "city": "Cuernavaca",
        "closeHours": "6:07 PM",
        "country": "Mexico",
        "dressCodeID": 4,
        "name": "McDonalds Centro",
        "openHours": "5:23 AM",
        "priceRangeMax": 51,
        "priceRangeMin": 5,
        "restID": 113,
        "state": "Morelos",
        "zip": 78240
    },
    {
        "address": "Lomas del Mirador",
        "city": "Cuernavaca",
        "closeHours": "2:43 PM",
        "country": "Mexico",
        "dressCodeID": 3,
        "name": "McDonalds Centro",
        "openHours": "3:37 AM",
        "priceRangeMax": 84,
        "priceRangeMin": 6,
        "restID": 114,
        "state": "Morelos",
        "zip": 78220
    },
    {
        "address": "Libramiento Burgos Colonia Las Animas",
        "city": "Cuernavaca",
        "closeHours": "3:41 PM",
        "country": "Mexico",
        "dressCodeID": 5,
        "name": "McDonalds Centro",
        "openHours": "4:30 AM",
        "priceRangeMax": 41,
        "priceRangeMin": 19,
        "restID": 115,
        "state": "Morelos",
        "zip": 78210
    },
    {
        "address": "circuito oriente esq. carretera 57",
        "city": "san luis potosi ",
        "closeHours": "9:32 PM",
        "country": "Mexico",
        "dressCodeID": 4,
        "name": "el lechon potosino ",
        "openHours": "2:28 AM",
        "priceRangeMax": 64,
        "priceRangeMin": 5,
        "restID": 116,
        "state": "slp",
        "zip": 62170
    },
    {
        "address": "circuito oriente esq. carretera 57",
        "city": "san luis potosi ",
        "closeHours": "6:42 PM",
        "country": "Mexico",
        "dressCodeID": 1,
        "name": "el lechon potosino ",
        "openHours": "7:37 AM",
        "priceRangeMax": 80,
        "priceRangeMin": 8,
        "restID": 117,
        "state": "slp",
        "zip": 62000
    },
    {
        "address": "circuito oriente esq. carretera 57",
        "city": "san luis potosi ",
        "closeHours": "10:32 PM",
        "country": "Mexico",
        "dressCodeID": 5,
        "name": "el lechon potosino ",
        "openHours": "10:50 AM",
        "priceRangeMax": 56,
        "priceRangeMin": 11,
        "restID": 118,
        "state": "slp",
        "zip": 62250
    },
    {
        "address": "r.b. anaya esq. florencia",
        "city": "slp",
        "closeHours": "1:10 PM",
        "country": "Mexico",
        "dressCodeID": 3,
        "name": "don burguers",
        "openHours": "5:21 AM",
        "priceRangeMax": 26,
        "priceRangeMin": 9,
        "restID": 119,
        "state": "slp",
        "zip": 62290
    },
    {
        "address": "r.b. anaya esq. florencia",
        "city": "slp",
        "closeHours": "7:07 PM",
        "country": "Mexico",
        "dressCodeID": 5,
        "name": "don burguers",
        "openHours": "5:19 AM",
        "priceRangeMax": 78,
        "priceRangeMin": 14,
        "restID": 120,
        "state": "slp",
        "zip": 62250
    },
    {
        "address": "r.b. anaya esq. florencia",
        "city": "slp",
        "closeHours": "4:44 PM",
        "country": "Mexico",
        "dressCodeID": 4,
        "name": "don burguers",
        "openHours": "2:17 AM",
        "priceRangeMax": 32,
        "priceRangeMin": 13,
        "restID": 121,
        "state": "slp",
        "zip": 62320
    },
    {
        "address": "Ricardo B. Anaya 2700 Estrella de Oriente",
        "city": "Cd Victoria",
        "closeHours": "10:27 PM",
        "country": "Mexico",
        "dressCodeID": 2,
        "name": "tacos de barbacoa enfrente del Tec",
        "openHours": "3:17 AM",
        "priceRangeMax": 68,
        "priceRangeMin": 16,
        "restID": 122,
        "state": null,
        "zip": 78396
    },
    {
        "address": "69 Tres De Mayo",
        "city": "s.l.p",
        "closeHours": "9:19 PM",
        "country": "Mexico",
        "dressCodeID": 3,
        "name": "tacos de barbacoa enfrente del Tec",
        "openHours": "9:15 AM",
        "priceRangeMax": 26,
        "priceRangeMin": 8,
        "restID": 123,
        "state": "SLP",
        "zip": 62000
    },
    {
        "address": "Agricultura 595 del Valle",
        "city": "s.l.p.",
        "closeHours": "1:26 PM",
        "country": "Mexico",
        "dressCodeID": 3,
        "name": "tacos de barbacoa enfrente del Tec",
        "openHours": "3:49 AM",
        "priceRangeMax": 39,
        "priceRangeMin": 10,
        "restID": 124,
        "state": "Tamaulipas",
        "zip": 62170
    },
    {
        "address": "Camino a Simon Diaz 155 Centro",
        "city": "San Luis Potosi",
        "closeHours": "3:19 PM",
        "country": "Mexico",
        "dressCodeID": 5,
        "name": "KFC",
        "openHours": "5:26 AM",
        "priceRangeMax": 75,
        "priceRangeMin": 9,
        "restID": 125,
        "state": "San Luis Potosi",
        "zip": 78280
    },
    {
        "address": "calle emilio portes gil",
        "city": "San Luis Potosi",
        "closeHours": "4:42 PM",
        "country": "Mexico",
        "dressCodeID": 3,
        "name": "KFC",
        "openHours": "9:10 AM",
        "priceRangeMax": 45,
        "priceRangeMin": 12,
        "restID": 126,
        "state": "San Luis Potosi",
        "zip": 64000
    },
    {
        "address": "avenida hivno nacional",
        "city": "San Luis Potosi",
        "closeHours": "9:44 PM",
        "country": "Mexico",
        "dressCodeID": 3,
        "name": "KFC",
        "openHours": "10:08 AM",
        "priceRangeMax": 28,
        "priceRangeMin": 15,
        "restID": 127,
        "state": "San Luis Potosi",
        "zip": 62460
    },
    {
        "address": "carr. mexico",
        "city": "San Luis Potosi",
        "closeHours": "3:35 PM",
        "country": "Mexico",
        "dressCodeID": 4,
        "name": "KFC",
        "openHours": "4:10 AM",
        "priceRangeMax": 22,
        "priceRangeMin": 19,
        "restID": 128,
        "state": "San Luis Potosi",
        "zip": 78290
    },
    {
        "address": "Calle Mezquite Fracc Framboyanes",
        "city": "San Luis Potosi",
        "closeHours": "1:38 PM",
        "country": "Mexico",
        "dressCodeID": 1,
        "name": "KFC",
        "openHours": "6:37 AM",
        "priceRangeMax": 44,
        "priceRangeMin": 11,
        "restID": 129,
        "state": "San Luis Potosi",
        "zip": 62790
    },
    {
        "address": "avenida salvador montiel ",
        "city": "San Luis Potosi",
        "closeHours": "7:12 PM",
        "country": "Mexico",
        "dressCodeID": 4,
        "name": "KFC",
        "openHours": "7:27 AM",
        "priceRangeMax": 26,
        "priceRangeMin": 19,
        "restID": 130,
        "state": "San Luis Potosi",
        "zip": 62790
    },
    {
        "address": "Anahuac 805",
        "city": "San Luis Potosi",
        "closeHours": "2:48 PM",
        "country": "Mexico",
        "dressCodeID": 2,
        "name": "Unicols Pizza",
        "openHours": "3:15 AM",
        "priceRangeMax": 24,
        "priceRangeMin": 15,
        "restID": 131,
        "state": "San Luis Potosi",
        "zip": 78270
    },
    {
        "address": "Alhondiga 62 Centro",
        "city": "San Luis Potosi",
        "closeHours": "6:32 PM",
        "country": "Mexico",
        "dressCodeID": 4,
        "name": "Unicols Pizza",
        "openHours": "11:47 AM",
        "priceRangeMax": 100,
        "priceRangeMin": 14,
        "restID": 132,
        "state": "San Luis Potosi",
        "zip": 78269
    },
    {
        "address": "Angel Veral 328 Altamira",
        "city": "San Luis Potosi",
        "closeHours": "3:18 PM",
        "country": "Mexico",
        "dressCodeID": 2,
        "name": "Unicols Pizza",
        "openHours": "8:12 AM",
        "priceRangeMax": 91,
        "priceRangeMin": 17,
        "restID": 133,
        "state": "San Luis Potosi",
        "zip": 78280
    },
    {
        "address": "Av. Carranza 830",
        "city": "Soledad",
        "closeHours": "2:15 PM",
        "country": "Mexico",
        "dressCodeID": 5,
        "name": "Hamburguesas Valle Dorado",
        "openHours": "11:00 AM",
        "priceRangeMax": 60,
        "priceRangeMin": 11,
        "restID": 134,
        "state": "San Luis Potosi",
        "zip": 78280
    },
    {
        "address": "Anahuac 805",
        "city": "san luis potosi ",
        "closeHours": "4:23 PM",
        "country": "Mexico",
        "dressCodeID": 1,
        "name": "Hamburguesas Valle Dorado",
        "openHours": "11:20 AM",
        "priceRangeMax": 78,
        "priceRangeMin": 10,
        "restID": 135,
        "state": "San Luis Potosi",
        "zip": 78269
    },
    {
        "address": "Angel Veral 328 Altamira",
        "city": "slp",
        "closeHours": "3:20 PM",
        "country": "Mexico",
        "dressCodeID": 4,
        "name": "Hamburguesas Valle Dorado",
        "openHours": "1:58 AM",
        "priceRangeMax": 39,
        "priceRangeMin": 9,
        "restID": 136,
        "state": "San Luis Potosi",
        "zip": 78270
    },
    {
        "address": "Mexico 2015 Providencia",
        "city": "san luis potos",
        "closeHours": "2:24 PM",
        "country": "Mexico",
        "dressCodeID": 3,
        "name": "shi ro ie",
        "openHours": "2:59 AM",
        "priceRangeMax": 29,
        "priceRangeMin": 10,
        "restID": 137,
        "state": null,
        "zip": 78038
    },
    {
        "address": "La Pradera",
        "city": "Ciudad Victoria",
        "closeHours": "1:34 PM",
        "country": "Mexico",
        "dressCodeID": 2,
        "name": "shi ro ie",
        "openHours": "5:12 AM",
        "priceRangeMax": 22,
        "priceRangeMin": 8,
        "restID": 138,
        "state": "Tamaulipas",
        "zip": 87018
    },
    {
        "address": "Lomas del Mirador",
        "city": "s.l.p.",
        "closeHours": "1:26 PM",
        "country": "Mexico",
        "dressCodeID": 5,
        "name": "shi ro ie",
        "openHours": "5:40 AM",
        "priceRangeMax": 43,
        "priceRangeMin": 12,
        "restID": 139,
        "state": "S.L.P.",
        "zip": 78000
    },
    {
        "address": "Ignacio Aldama 300 Centro",
        "city": "?",
        "closeHours": "3:17 PM",
        "country": "Mexico",
        "dressCodeID": 3,
        "name": "shi ro ie",
        "openHours": "8:38 AM",
        "priceRangeMax": 26,
        "priceRangeMin": 10,
        "restID": 140,
        "state": "S.L.P.",
        "zip": 78399
    },
    {
        "address": "Julian de Los Reyes 400 Centro",
        "city": "Cd. Victoria",
        "closeHours": "2:37 PM",
        "country": "Mexico",
        "dressCodeID": 1,
        "name": "shi ro ie",
        "openHours": "5:06 AM",
        "priceRangeMax": 38,
        "priceRangeMin": 20,
        "restID": 141,
        "state": "SLP",
        "zip": 79300
    },
    {
        "address": "Lateral Salvador Nava Martinez 3145",
        "city": "Cuernavaca",
        "closeHours": "10:14 PM",
        "country": "Mexico",
        "dressCodeID": 4,
        "name": "shi ro ie",
        "openHours": "5:19 AM",
        "priceRangeMax": 88,
        "priceRangeMin": 8,
        "restID": 142,
        "state": null,
        "zip": 62790
    },
    {
        "address": "Mexico 810 Centro",
        "city": "San Luis Potosi",
        "closeHours": "9:26 PM",
        "country": "Mexico",
        "dressCodeID": 4,
        "name": "shi ro ie",
        "openHours": "5:49 AM",
        "priceRangeMax": 32,
        "priceRangeMin": 11,
        "restID": 143,
        "state": "S.L.P.",
        "zip": 78200
    },
    {
        "address": "Ignacio Allende 785 Centro",
        "city": "?",
        "closeHours": "2:33 PM",
        "country": "Mexico",
        "dressCodeID": 4,
        "name": "shi ro ie",
        "openHours": "1:05 AM",
        "priceRangeMax": 79,
        "priceRangeMin": 17,
        "restID": 144,
        "state": null,
        "zip": 78421
    },
    {
        "address": "Interior Internado Palmira SN",
        "city": "?",
        "closeHours": "7:58 PM",
        "country": "Mexico",
        "dressCodeID": 5,
        "name": "shi ro ie",
        "openHours": "6:14 AM",
        "priceRangeMax": 49,
        "priceRangeMin": 18,
        "restID": 145,
        "state": "Morelos",
        "zip": 78433
    },
    {
        "address": "Himno Nacional 2104 Tangamanga",
        "city": "?",
        "closeHours": "7:52 PM",
        "country": "Mexico",
        "dressCodeID": 4,
        "name": "shi ro ie",
        "openHours": "5:10 AM",
        "priceRangeMax": 69,
        "priceRangeMin": 5,
        "restID": 146,
        "state": null,
        "zip": 78395
    },
    {
        "address": "Jesus Goytortua 390 Tangamanga",
        "city": "Cd Victoria",
        "closeHours": "3:04 PM",
        "country": "Mexico",
        "dressCodeID": 2,
        "name": "shi ro ie",
        "openHours": "11:28 AM",
        "priceRangeMax": 60,
        "priceRangeMin": 9,
        "restID": 147,
        "state": "S.L.P.",
        "zip": 78740
    },
    {
        "address": "Libramiento Burgos Colonia Las Animas",
        "city": "Jiutepec",
        "closeHours": "5:01 PM",
        "country": "Mexico",
        "dressCodeID": 1,
        "name": "shi ro ie",
        "openHours": "7:15 AM",
        "priceRangeMax": 36,
        "priceRangeMin": 15,
        "restID": 148,
        "state": null,
        "zip": 64000
    },
    {
        "address": "lic. Emilio portes gil",
        "city": "s.l.p",
        "closeHours": "7:36 PM",
        "country": "Mexico",
        "dressCodeID": 2,
        "name": "shi ro ie",
        "openHours": "10:57 AM",
        "priceRangeMax": 98,
        "priceRangeMin": 9,
        "restID": 149,
        "state": "Morelos",
        "zip": 74000
    },
    {
        "address": "Himno nacional esq. Blvd. Juarez",
        "city": "?",
        "closeHours": "11:54 PM",
        "country": "Mexico",
        "dressCodeID": 3,
        "name": "shi ro ie",
        "openHours": "11:48 AM",
        "priceRangeMax": 23,
        "priceRangeMin": 8,
        "restID": 150,
        "state": "Morelos",
        "zip": 78396
    },
    {
        "address": "Industrias 908 Valle Dorado",
        "city": "?",
        "closeHours": "11:15 PM",
        "country": "Mexico",
        "dressCodeID": 1,
        "name": "shi ro ie",
        "openHours": "7:30 AM",
        "priceRangeMax": 43,
        "priceRangeMin": 9,
        "restID": 151,
        "state": null,
        "zip": 78430
    },
    {
        "address": "1a. de Lozada 1",
        "city": "Cd Victoria",
        "closeHours": "8:17 PM",
        "country": "Mexico",
        "dressCodeID": 2,
        "name": "Rincon del Bife",
        "openHours": "8:56 AM",
        "priceRangeMax": 52,
        "priceRangeMin": 19,
        "restID": 152,
        "state": null,
        "zip": 78210
    },
    {
        "address": "lic. Emilio portes gil",
        "city": "San Luis Potosi",
        "closeHours": "6:47 PM",
        "country": "Mexico",
        "dressCodeID": 2,
        "name": "Rincon del Bife",
        "openHours": "1:46 AM",
        "priceRangeMax": 26,
        "priceRangeMin": 20,
        "restID": 153,
        "state": "Tamaulipas",
        "zip": 78395
    },
    {
        "address": "36 Sur Civac",
        "city": "Ciudad Victoria",
        "closeHours": "10:14 PM",
        "country": "Mexico",
        "dressCodeID": 5,
        "name": "Rincon del Bife",
        "openHours": "7:52 AM",
        "priceRangeMax": 86,
        "priceRangeMin": 12,
        "restID": 154,
        "state": "S.L.P.",
        "zip": 78269
    },
    {
        "address": "20 de Noviembre 1817 Tlaxcala",
        "city": "Cd. Victoria",
        "closeHours": "9:28 PM",
        "country": "Mexico",
        "dressCodeID": 1,
        "name": "Rincon del Bife",
        "openHours": "1:05 AM",
        "priceRangeMax": 84,
        "priceRangeMin": 6,
        "restID": 155,
        "state": "Morelos",
        "zip": 78214
    },
    {
        "address": "40 Norte Civac 1RA. Seccion",
        "city": "Cuernavaca",
        "closeHours": "9:17 PM",
        "country": "Mexico",
        "dressCodeID": 5,
        "name": "Rincon del Bife",
        "openHours": "11:53 AM",
        "priceRangeMax": 84,
        "priceRangeMin": 8,
        "restID": 156,
        "state": null,
        "zip": 78270
    },
    {
        "address": "Agricultura 595 del Valle",
        "city": "s.l.p.",
        "closeHours": "8:17 PM",
        "country": "Mexico",
        "dressCodeID": 3,
        "name": "Rincon del Bife",
        "openHours": "2:43 AM",
        "priceRangeMax": 26,
        "priceRangeMin": 6,
        "restID": 157,
        "state": "S.L.P.",
        "zip": 78421
    },
    {
        "address": "La Pradera",
        "city": "s.l.p",
        "closeHours": "2:02 PM",
        "country": "Mexico",
        "dressCodeID": 2,
        "name": "Rincon del Bife",
        "openHours": "10:20 AM",
        "priceRangeMax": 59,
        "priceRangeMin": 9,
        "restID": 158,
        "state": "Morelos",
        "zip": 78310
    },
    {
        "address": "69 Tres De Mayo",
        "city": "s.l.p",
        "closeHours": "4:47 PM",
        "country": "Mexico",
        "dressCodeID": 5,
        "name": "Rincon del Bife",
        "openHours": "1:19 AM",
        "priceRangeMax": 47,
        "priceRangeMin": 11,
        "restID": 159,
        "state": "Morelos",
        "zip": 78399
    },
    {
        "address": "Libramiento Burgos Colonia Las Animas",
        "city": "san luis potos",
        "closeHours": "6:25 PM",
        "country": "Mexico",
        "dressCodeID": 2,
        "name": "Rincon del Bife",
        "openHours": "3:49 AM",
        "priceRangeMax": 90,
        "priceRangeMin": 18,
        "restID": 160,
        "state": "SLP",
        "zip": 78390
    },
    {
        "address": "Lateral Salvador Nava Martinez 3145",
        "city": "s.l.p.",
        "closeHours": "9:42 PM",
        "country": "Mexico",
        "dressCodeID": 1,
        "name": "Rincon del Bife",
        "openHours": "8:55 AM",
        "priceRangeMax": 74,
        "priceRangeMin": 19,
        "restID": 161,
        "state": "S.L.P.",
        "zip": 78349
    },
    {
        "address": "524 Soledad de Graciano Sanchez",
        "city": "Jiutepec",
        "closeHours": "9:12 PM",
        "country": "Mexico",
        "dressCodeID": 1,
        "name": "Rincon del Bife",
        "openHours": "10:42 AM",
        "priceRangeMax": 68,
        "priceRangeMin": 13,
        "restID": 162,
        "state": null,
        "zip": 78280
    },
    {
        "address": "agustin de iturbide",
        "city": "san luis potos",
        "closeHours": "11:23 PM",
        "country": "Mexico",
        "dressCodeID": 5,
        "name": "Rincon del Bife",
        "openHours": "9:38 AM",
        "priceRangeMax": 69,
        "priceRangeMin": 13,
        "restID": 163,
        "state": "SLP",
        "zip": 78430
    },
    {
        "address": "Domingo 10 711 El Empleado",
        "city": "Cuernavaca",
        "closeHours": "9:08 PM",
        "country": "Mexico",
        "dressCodeID": 5,
        "name": "Restaurant and Bar and Clothesline Carlos N Charlies",
        "openHours": "1:15 AM",
        "priceRangeMax": 89,
        "priceRangeMin": 11,
        "restID": 164,
        "state": "Morelos",
        "zip": 78399
    },
    {
        "address": "Domingo 10 711 El Empleado",
        "city": "Cuernavaca",
        "closeHours": "7:19 PM",
        "country": "Mexico",
        "dressCodeID": 1,
        "name": "Restaurant and Bar and Clothesline Carlos N Charlies",
        "openHours": "6:29 AM",
        "priceRangeMax": 44,
        "priceRangeMin": 12,
        "restID": 165,
        "state": "Morelos",
        "zip": 78740
    },
    {
        "address": "Domingo 10 711 El Empleado",
        "city": "Cuernavaca",
        "closeHours": "8:12 PM",
        "country": "Mexico",
        "dressCodeID": 5,
        "name": "Restaurant and Bar and Clothesline Carlos N Charlies",
        "openHours": "11:48 AM",
        "priceRangeMax": 78,
        "priceRangeMin": 8,
        "restID": 166,
        "state": "Morelos",
        "zip": 78433
    },
    {
        "address": "Domingo 10 711 El Empleado",
        "city": "Cuernavaca",
        "closeHours": "2:21 PM",
        "country": "Mexico",
        "dressCodeID": 4,
        "name": "Restaurant and Bar and Clothesline Carlos N Charlies",
        "openHours": "11:29 AM",
        "priceRangeMax": 69,
        "priceRangeMin": 13,
        "restID": 167,
        "state": "Morelos",
        "zip": 78430
    },
    {
        "address": "Domingo 10 711 El Empleado",
        "city": "Cuernavaca",
        "closeHours": "8:06 PM",
        "country": "Mexico",
        "dressCodeID": 4,
        "name": "Restaurant and Bar and Clothesline Carlos N Charlies",
        "openHours": "10:35 AM",
        "priceRangeMax": 54,
        "priceRangeMin": 18,
        "restID": 168,
        "state": "Morelos",
        "zip": 78390
    },
    {
        "address": "Domingo 10 711 El Empleado",
        "city": "Cuernavaca",
        "closeHours": "7:30 PM",
        "country": "Mexico",
        "dressCodeID": 3,
        "name": "Restaurant and Bar and Clothesline Carlos N Charlies",
        "openHours": "7:52 AM",
        "priceRangeMax": 97,
        "priceRangeMin": 8,
        "restID": 169,
        "state": "Morelos",
        "zip": 78421
    },
    {
        "address": "Domingo 10 711 El Empleado",
        "city": "Cuernavaca",
        "closeHours": "8:13 PM",
        "country": "Mexico",
        "dressCodeID": 5,
        "name": "Restaurant and Bar and Clothesline Carlos N Charlies",
        "openHours": "8:14 AM",
        "priceRangeMax": 80,
        "priceRangeMin": 7,
        "restID": 170,
        "state": "Morelos",
        "zip": 79300
    },
    {
        "address": "Domingo 10 711 El Empleado",
        "city": "Cuernavaca",
        "closeHours": "5:41 PM",
        "country": "Mexico",
        "dressCodeID": 3,
        "name": "Restaurant and Bar and Clothesline Carlos N Charlies",
        "openHours": "1:02 AM",
        "priceRangeMax": 100,
        "priceRangeMin": 11,
        "restID": 171,
        "state": "Morelos",
        "zip": 78396
    },
    {
        "address": "Domingo 10 711 El Empleado",
        "city": "Cuernavaca",
        "closeHours": "7:03 PM",
        "country": "Mexico",
        "dressCodeID": 2,
        "name": "Restaurant and Bar and Clothesline Carlos N Charlies",
        "openHours": "1:38 AM",
        "priceRangeMax": 27,
        "priceRangeMin": 14,
        "restID": 172,
        "state": "Morelos",
        "zip": 78395
    },
    {
        "address": "Domingo 10 711 El Empleado",
        "city": "Cuernavaca",
        "closeHours": "9:46 PM",
        "country": "Mexico",
        "dressCodeID": 5,
        "name": "Restaurant and Bar and Clothesline Carlos N Charlies",
        "openHours": "7:27 AM",
        "priceRangeMax": 23,
        "priceRangeMin": 18,
        "restID": 173,
        "state": "Morelos",
        "zip": 87018
    },
    {
        "address": "Domingo 10 711 El Empleado",
        "city": "Cuernavaca",
        "closeHours": "3:37 PM",
        "country": "Mexico",
        "dressCodeID": 3,
        "name": "Restaurant and Bar and Clothesline Carlos N Charlies",
        "openHours": "3:44 AM",
        "priceRangeMax": 62,
        "priceRangeMin": 9,
        "restID": 174,
        "state": "Morelos",
        "zip": 62250
    },
    {
        "address": "Ignacio Aldama 300 Centro",
        "city": "Cuernavaca",
        "closeHours": "3:32 PM",
        "country": "Mexico",
        "dressCodeID": 1,
        "name": "Restaurant Teely",
        "openHours": "5:09 AM",
        "priceRangeMax": 59,
        "priceRangeMin": 18,
        "restID": 175,
        "state": "Morelos",
        "zip": 78240
    },
    {
        "address": "De La Estrella 2005 Estrella de Oriente",
        "city": "Cuernavaca",
        "closeHours": "9:32 PM",
        "country": "Mexico",
        "dressCodeID": 5,
        "name": "Restaurant Teely",
        "openHours": "7:45 AM",
        "priceRangeMax": 75,
        "priceRangeMin": 13,
        "restID": 176,
        "state": "Morelos",
        "zip": 62000
    },
    {
        "address": "De Guadalupe 460 San Miguelito",
        "city": "Cuernavaca",
        "closeHours": "8:23 PM",
        "country": "Mexico",
        "dressCodeID": 4,
        "name": "Restaurant Teely",
        "openHours": "1:49 AM",
        "priceRangeMax": 68,
        "priceRangeMin": 14,
        "restID": 177,
        "state": "Morelos",
        "zip": 78421
    },
    {
        "address": "Cuauhtemoc 455",
        "city": "Cuernavaca",
        "closeHours": "9:25 PM",
        "country": "Mexico",
        "dressCodeID": 2,
        "name": "Restaurant Teely",
        "openHours": "11:23 AM",
        "priceRangeMax": 46,
        "priceRangeMin": 18,
        "restID": 178,
        "state": "Morelos",
        "zip": 78399
    },
    {
        "address": "Himno nacional esq. Blvd. Juarez",
        "city": "Cuernavaca",
        "closeHours": "9:56 PM",
        "country": "Mexico",
        "dressCodeID": 3,
        "name": "Restaurant Teely",
        "openHours": "10:41 AM",
        "priceRangeMax": 43,
        "priceRangeMin": 20,
        "restID": 179,
        "state": "Morelos",
        "zip": 78220
    },
    {
        "address": "General Mariano Arista 1205 Barrio de Tequisquiap",
        "city": "Cuernavaca",
        "closeHours": "9:14 PM",
        "country": "Mexico",
        "dressCodeID": 1,
        "name": "Restaurant Teely",
        "openHours": "5:00 AM",
        "priceRangeMax": 40,
        "priceRangeMin": 17,
        "restID": 180,
        "state": "Morelos",
        "zip": 78038
    },
    {
        "address": "Himno Nacional 2104 Tangamanga",
        "city": "Cuernavaca",
        "closeHours": "4:27 PM",
        "country": "Mexico",
        "dressCodeID": 5,
        "name": "Restaurant Teely",
        "openHours": "5:37 AM",
        "priceRangeMax": 99,
        "priceRangeMin": 16,
        "restID": 181,
        "state": "Morelos",
        "zip": 78214
    },
    {
        "address": "Himno Nacional 100 Avenida",
        "city": "Cuernavaca",
        "closeHours": "5:27 PM",
        "country": "Mexico",
        "dressCodeID": 1,
        "name": "Restaurant Teely",
        "openHours": "3:03 AM",
        "priceRangeMax": 27,
        "priceRangeMin": 12,
        "restID": 182,
        "state": "Morelos",
        "zip": 78210
    },
    {
        "address": "Guajardo Sn San Luis Potosi Centro",
        "city": "Cuernavaca",
        "closeHours": "9:09 PM",
        "country": "Mexico",
        "dressCodeID": 1,
        "name": "Restaurant Teely",
        "openHours": "7:04 AM",
        "priceRangeMax": 21,
        "priceRangeMin": 6,
        "restID": 183,
        "state": "Morelos",
        "zip": 78200
    },
    {
        "address": "venustiano carranza",
        "city": "San Luis Potosi",
        "closeHours": "10:19 PM",
        "country": "Mexico",
        "dressCodeID": 1,
        "name": "El Mundo de la Pasta",
        "openHours": "6:49 AM",
        "priceRangeMax": 63,
        "priceRangeMin": 15,
        "restID": 184,
        "state": "SLP",
        "zip": 79300
    },
    {
        "address": "Venustiano Carranza 2175 Jardin",
        "city": "San Luis Potosi",
        "closeHours": "2:31 PM",
        "country": "Mexico",
        "dressCodeID": 1,
        "name": "El Mundo de la Pasta",
        "openHours": "11:21 AM",
        "priceRangeMax": 39,
        "priceRangeMin": 10,
        "restID": 185,
        "state": "SLP",
        "zip": 78210
    },
    {
        "address": "Venustiano Carranza 303 Centro",
        "city": "San Luis Potosi",
        "closeHours": "3:25 PM",
        "country": "Mexico",
        "dressCodeID": 3,
        "name": "El Mundo de la Pasta",
        "openHours": "1:16 AM",
        "priceRangeMax": 65,
        "priceRangeMin": 8,
        "restID": 186,
        "state": "SLP",
        "zip": 78210
    },
    {
        "address": "Rio Papaloapan 265 Lomas de San Luis (3)",
        "city": "San Luis Potosi",
        "closeHours": "4:37 PM",
        "country": "Mexico",
        "dressCodeID": 1,
        "name": "El Mundo de la Pasta",
        "openHours": "8:57 AM",
        "priceRangeMax": 21,
        "priceRangeMin": 7,
        "restID": 187,
        "state": "SLP",
        "zip": 78210
    },
    {
        "address": "Villa de Pozos 192 Villa de Pozos",
        "city": "San Luis Potosi",
        "closeHours": "11:34 PM",
        "country": "Mexico",
        "dressCodeID": 3,
        "name": "El Mundo de la Pasta",
        "openHours": "9:16 AM",
        "priceRangeMax": 92,
        "priceRangeMin": 20,
        "restID": 188,
        "state": "SLP",
        "zip": 78210
    },
    {
        "address": "Venustiano Carranza 560 Centro",
        "city": "San Luis Potosi",
        "closeHours": "6:04 PM",
        "country": "Mexico",
        "dressCodeID": 2,
        "name": "El Mundo de la Pasta",
        "openHours": "11:17 AM",
        "priceRangeMax": 69,
        "priceRangeMin": 14,
        "restID": 189,
        "state": "SLP",
        "zip": 78210
    },
    {
        "address": "Venustiano Carranza 1625 Jardin",
        "city": "San Luis Potosi",
        "closeHours": "5:46 PM",
        "country": "Mexico",
        "dressCodeID": 2,
        "name": "El Mundo de la Pasta",
        "openHours": "8:05 AM",
        "priceRangeMax": 86,
        "priceRangeMin": 5,
        "restID": 190,
        "state": "SLP",
        "zip": 87018
    },
    {
        "address": "Venustiano Carranza 719 Centro",
        "city": "San Luis Potosi",
        "closeHours": "6:49 PM",
        "country": "Mexico",
        "dressCodeID": 4,
        "name": "El Mundo de la Pasta",
        "openHours": "6:09 AM",
        "priceRangeMax": 97,
        "priceRangeMin": 10,
        "restID": 191,
        "state": "SLP",
        "zip": 78210
    },
    {
        "address": "Venustiano Carranza 1809 C Polanco",
        "city": "San Luis Potosi",
        "closeHours": "11:57 PM",
        "country": "Mexico",
        "dressCodeID": 3,
        "name": "El Mundo de la Pasta",
        "openHours": "7:53 AM",
        "priceRangeMax": 25,
        "priceRangeMin": 9,
        "restID": 192,
        "state": "SLP",
        "zip": 78210
    },
    {
        "address": "Camino a Simon Diaz 155 Centro",
        "city": "San Luis Potosi",
        "closeHours": "5:46 PM",
        "country": "Mexico",
        "dressCodeID": 1,
        "name": "Restaurant los Compadres",
        "openHours": "4:18 AM",
        "priceRangeMax": 58,
        "priceRangeMin": 11,
        "restID": 193,
        "state": "SLP",
        "zip": 74000
    },
    {
        "address": "Camino a Simon Diaz 155 Centro",
        "city": "San Luis Potosi",
        "closeHours": "3:24 PM",
        "country": "Mexico",
        "dressCodeID": 1,
        "name": "Restaurant los Compadres",
        "openHours": "7:08 AM",
        "priceRangeMax": 75,
        "priceRangeMin": 10,
        "restID": 194,
        "state": "SLP",
        "zip": 62320
    },
    {
        "address": "Camino a Simon Diaz 155 Centro",
        "city": "San Luis Potosi",
        "closeHours": "2:48 PM",
        "country": "Mexico",
        "dressCodeID": 4,
        "name": "Restaurant los Compadres",
        "openHours": "2:48 AM",
        "priceRangeMax": 47,
        "priceRangeMin": 14,
        "restID": 195,
        "state": "SLP",
        "zip": 62460
    },
    {
        "address": "Camino a Simon Diaz 155 Centro",
        "city": "San Luis Potosi",
        "closeHours": "5:56 PM",
        "country": "Mexico",
        "dressCodeID": 2,
        "name": "Restaurant los Compadres",
        "openHours": "4:58 AM",
        "priceRangeMax": 74,
        "priceRangeMin": 20,
        "restID": 196,
        "state": "SLP",
        "zip": 62790
    },
    {
        "address": "Camino a Simon Diaz 155 Centro",
        "city": "San Luis Potosi",
        "closeHours": "6:16 PM",
        "country": "Mexico",
        "dressCodeID": 5,
        "name": "Restaurant los Compadres",
        "openHours": "8:43 AM",
        "priceRangeMax": 56,
        "priceRangeMin": 15,
        "restID": 197,
        "state": "SLP",
        "zip": 64000
    },
    {
        "address": "Camino a Simon Diaz 155 Centro",
        "city": "San Luis Potosi",
        "closeHours": "4:17 PM",
        "country": "Mexico",
        "dressCodeID": 5,
        "name": "Restaurant los Compadres",
        "openHours": "3:12 AM",
        "priceRangeMax": 34,
        "priceRangeMin": 5,
        "restID": 198,
        "state": "SLP",
        "zip": 78200
    },
    {
        "address": "Camino a Simon Diaz 155 Centro",
        "city": "San Luis Potosi",
        "closeHours": "10:47 PM",
        "country": "Mexico",
        "dressCodeID": 5,
        "name": "Restaurant los Compadres",
        "openHours": "7:33 AM",
        "priceRangeMax": 91,
        "priceRangeMin": 6,
        "restID": 199,
        "state": "SLP",
        "zip": 78038
    },
    {
        "address": "Camino a Simon Diaz 155 Centro",
        "city": "San Luis Potosi",
        "closeHours": "2:25 PM",
        "country": "Mexico",
        "dressCodeID": 3,
        "name": "Restaurant los Compadres",
        "openHours": "2:41 AM",
        "priceRangeMax": 90,
        "priceRangeMin": 13,
        "restID": 200,
        "state": "SLP",
        "zip": 78000
    },
    {
        "address": "Camino a Simon Diaz 155 Centro",
        "city": "San Luis Potosi",
        "closeHours": "8:25 PM",
        "country": "Mexico",
        "dressCodeID": 1,
        "name": "Restaurant los Compadres",
        "openHours": "10:34 AM",
        "priceRangeMax": 27,
        "priceRangeMin": 12,
        "restID": 201,
        "state": "SLP",
        "zip": 62290
    },
    {
        "address": "Venustiano Carranza 560 Centro",
        "city": "San Luis Potosi",
        "closeHours": "9:27 PM",
        "country": "Mexico",
        "dressCodeID": 4,
        "name": "Restaurante la Gran Via",
        "openHours": "10:17 AM",
        "priceRangeMax": 72,
        "priceRangeMin": 19,
        "restID": 202,
        "state": "SLP",
        "zip": 78269
    },
    {
        "address": "Venustiano Carranza 560 Centro",
        "city": "San Luis Potosi",
        "closeHours": "10:06 PM",
        "country": "Mexico",
        "dressCodeID": 4,
        "name": "Restaurante la Gran Via",
        "openHours": "10:39 AM",
        "priceRangeMax": 54,
        "priceRangeMin": 12,
        "restID": 203,
        "state": "SLP",
        "zip": 78240
    },
    {
        "address": "Venustiano Carranza 560 Centro",
        "city": "San Luis Potosi",
        "closeHours": "3:43 PM",
        "country": "Mexico",
        "dressCodeID": 1,
        "name": "Restaurante la Gran Via",
        "openHours": "8:38 AM",
        "priceRangeMax": 21,
        "priceRangeMin": 15,
        "restID": 204,
        "state": "SLP",
        "zip": 78250
    },
    {
        "address": "Venustiano Carranza 560 Centro",
        "city": "San Luis Potosi",
        "closeHours": "7:02 PM",
        "country": "Mexico",
        "dressCodeID": 5,
        "name": "Restaurante la Gran Via",
        "openHours": "6:59 AM",
        "priceRangeMax": 90,
        "priceRangeMin": 10,
        "restID": 205,
        "state": "SLP",
        "zip": 78000
    },
    {
        "address": "Venustiano Carranza 560 Centro",
        "city": "San Luis Potosi",
        "closeHours": "7:43 PM",
        "country": "Mexico",
        "dressCodeID": 4,
        "name": "Restaurante la Gran Via",
        "openHours": "1:46 AM",
        "priceRangeMax": 30,
        "priceRangeMin": 18,
        "restID": 206,
        "state": "SLP",
        "zip": 78270
    },
    {
        "address": "General Mariano Arista 1205 Barrio de Tequisquiap",
        "city": "San Luis Potosi",
        "closeHours": "1:26 PM",
        "country": "Mexico",
        "dressCodeID": 2,
        "name": "Restaurante Casa de las Flores",
        "openHours": "3:11 AM",
        "priceRangeMax": 40,
        "priceRangeMin": 6,
        "restID": 207,
        "state": "SLP",
        "zip": 78310
    },
    {
        "address": "General Mariano Arista 1205 Barrio de Tequisquiap",
        "city": "San Luis Potosi",
        "closeHours": "7:58 PM",
        "country": "Mexico",
        "dressCodeID": 2,
        "name": "Restaurante Casa de las Flores",
        "openHours": "1:57 AM",
        "priceRangeMax": 37,
        "priceRangeMin": 12,
        "restID": 208,
        "state": "SLP",
        "zip": 87018
    },
    {
        "address": "frente al tecnologico",
        "city": "San Luis Potosi",
        "closeHours": "11:50 PM",
        "country": "Mexico",
        "dressCodeID": 4,
        "name": "Restaurante Casa de las Flores",
        "openHours": "11:12 AM",
        "priceRangeMax": 76,
        "priceRangeMin": 17,
        "restID": 209,
        "state": "SLP",
        "zip": 78000
    },
    {
        "address": "Francisco I. Madero 215",
        "city": "San Luis Potosi",
        "closeHours": "11:36 PM",
        "country": "Mexico",
        "dressCodeID": 4,
        "name": "Restaurante Casa de las Flores",
        "openHours": "9:46 AM",
        "priceRangeMax": 51,
        "priceRangeMin": 12,
        "restID": 210,
        "state": "SLP",
        "zip": 74000
    },
    {
        "address": "Emiliano Zapata No. 825 Tlaltenongo",
        "city": "San Luis Potosi",
        "closeHours": "5:17 PM",
        "country": "Mexico",
        "dressCodeID": 5,
        "name": "Restaurante Casa de las Flores",
        "openHours": "10:33 AM",
        "priceRangeMax": 83,
        "priceRangeMin": 13,
        "restID": 211,
        "state": "SLP",
        "zip": 78740
    },
    {
        "address": "Jesus Goytortua 390 Tangamanga",
        "city": "San Luis Potosi",
        "closeHours": "7:36 PM",
        "country": "Mexico",
        "dressCodeID": 4,
        "name": "Restaurante Bar Fu-hao",
        "openHours": "5:03 AM",
        "priceRangeMax": 51,
        "priceRangeMin": 10,
        "restID": 212,
        "state": "SLP",
        "zip": 78290
    },
    {
        "address": "Jesus Goytortua 390 Tangamanga",
        "city": "San Luis Potosi",
        "closeHours": "4:03 PM",
        "country": "Mexico",
        "dressCodeID": 5,
        "name": "Restaurante Bar Fu-hao",
        "openHours": "8:58 AM",
        "priceRangeMax": 41,
        "priceRangeMin": 12,
        "restID": 213,
        "state": "SLP",
        "zip": 78310
    },
    {
        "address": "Jesus Goytortua 390 Tangamanga",
        "city": "San Luis Potosi",
        "closeHours": "1:50 PM",
        "country": "Mexico",
        "dressCodeID": 2,
        "name": "Restaurante Bar Fu-hao",
        "openHours": "2:40 AM",
        "priceRangeMax": 28,
        "priceRangeMin": 13,
        "restID": 214,
        "state": "SLP",
        "zip": 78240
    },
    {
        "address": "Jesus Goytortua 390 Tangamanga",
        "city": "San Luis Potosi",
        "closeHours": "8:38 PM",
        "country": "Mexico",
        "dressCodeID": 3,
        "name": "Restaurante Bar Fu-hao",
        "openHours": "11:39 AM",
        "priceRangeMax": 79,
        "priceRangeMin": 14,
        "restID": 215,
        "state": "SLP",
        "zip": 78250
    },
    {
        "address": "Jesus Goytortua 390 Tangamanga",
        "city": "San Luis Potosi",
        "closeHours": "5:31 PM",
        "country": "Mexico",
        "dressCodeID": 3,
        "name": "Restaurante Bar Fu-hao",
        "openHours": "6:52 AM",
        "priceRangeMax": 47,
        "priceRangeMin": 18,
        "restID": 216,
        "state": "SLP",
        "zip": 78220
    },
    {
        "address": "Jesus Goytortua 390 Tangamanga",
        "city": "San Luis Potosi",
        "closeHours": "11:15 PM",
        "country": "Mexico",
        "dressCodeID": 4,
        "name": "Restaurante Bar Fu-hao",
        "openHours": "6:38 AM",
        "priceRangeMax": 85,
        "priceRangeMin": 17,
        "restID": 217,
        "state": "SLP",
        "zip": 78214
    },
    {
        "address": "Jesus Goytortua 390 Tangamanga",
        "city": "San Luis Potosi",
        "closeHours": "2:48 PM",
        "country": "Mexico",
        "dressCodeID": 3,
        "name": "Restaurante Bar Fu-hao",
        "openHours": "11:12 AM",
        "priceRangeMax": 100,
        "priceRangeMin": 5,
        "restID": 218,
        "state": "SLP",
        "zip": 78280
    },
    {
        "address": "Jesus Goytortua 390 Tangamanga",
        "city": "San Luis Potosi",
        "closeHours": "6:49 PM",
        "country": "Mexico",
        "dressCodeID": 4,
        "name": "Restaurante Bar Fu-hao",
        "openHours": "7:54 AM",
        "priceRangeMax": 42,
        "priceRangeMin": 19,
        "restID": 219,
        "state": "SLP",
        "zip": 78270
    },
    {
        "address": "Jesus Goytortua 390 Tangamanga",
        "city": "San Luis Potosi",
        "closeHours": "1:41 PM",
        "country": "Mexico",
        "dressCodeID": 2,
        "name": "Restaurante Bar Fu-hao",
        "openHours": "9:18 AM",
        "priceRangeMax": 43,
        "priceRangeMin": 7,
        "restID": 220,
        "state": "SLP",
        "zip": 78210
    },
    {
        "address": "Jesus Goytortua 390 Tangamanga",
        "city": "San Luis Potosi",
        "closeHours": "3:22 PM",
        "country": "Mexico",
        "dressCodeID": 4,
        "name": "Restaurante Bar Fu-hao",
        "openHours": "4:40 AM",
        "priceRangeMax": 84,
        "priceRangeMin": 15,
        "restID": 221,
        "state": "SLP",
        "zip": 78038
    },
    {
        "address": "Jesus Goytortua 390 Tangamanga",
        "city": "San Luis Potosi",
        "closeHours": "10:22 PM",
        "country": "Mexico",
        "dressCodeID": 3,
        "name": "Restaurante Bar Fu-hao",
        "openHours": "5:01 AM",
        "priceRangeMax": 99,
        "priceRangeMin": 15,
        "restID": 222,
        "state": "SLP",
        "zip": 78200
    },
    {
        "address": "Jesus Goytortua 390 Tangamanga",
        "city": "San Luis Potosi",
        "closeHours": "11:29 PM",
        "country": "Mexico",
        "dressCodeID": 4,
        "name": "Restaurante Bar Fu-hao",
        "openHours": "10:26 AM",
        "priceRangeMax": 70,
        "priceRangeMin": 5,
        "restID": 223,
        "state": "SLP",
        "zip": 78269
    },
    {
        "address": "Soledad Sn Arboledas de Soledad",
        "city": "Soledad",
        "closeHours": "1:28 PM",
        "country": "Mexico",
        "dressCodeID": 3,
        "name": "Restaurante la Estrella de Dima",
        "openHours": "8:40 AM",
        "priceRangeMax": 63,
        "priceRangeMin": 18,
        "restID": 224,
        "state": "SLP",
        "zip": 78430
    },
    {
        "address": "Venustiano Carranza 1625 Jardin",
        "city": "victoria",
        "closeHours": "5:17 PM",
        "country": "Mexico",
        "dressCodeID": 4,
        "name": "La Cantina Restaurante",
        "openHours": "9:34 AM",
        "priceRangeMax": 43,
        "priceRangeMin": 8,
        "restID": 225,
        "state": "S.L.P.",
        "zip": 87018
    },
    {
        "address": "Ignacio Aldama 300 Centro",
        "city": "San Luis Potosi",
        "closeHours": "5:02 PM",
        "country": "Mexico",
        "dressCodeID": 5,
        "name": "La Cantina Restaurante",
        "openHours": "11:38 AM",
        "priceRangeMax": 89,
        "priceRangeMin": 20,
        "restID": 226,
        "state": "SLP",
        "zip": 78740
    },
    {
        "address": "Ignacio Aldama 300 Centro",
        "city": "San Luis Potosi",
        "closeHours": "1:25 PM",
        "country": "Mexico",
        "dressCodeID": 1,
        "name": "La Cantina Restaurante",
        "openHours": "4:50 AM",
        "priceRangeMax": 80,
        "priceRangeMin": 18,
        "restID": 227,
        "state": "SLP",
        "zip": 79300
    },
    {
        "address": "venustiano carranza",
        "city": "Soledad",
        "closeHours": "1:50 PM",
        "country": "Mexico",
        "dressCodeID": 4,
        "name": "La Cantina Restaurante",
        "openHours": "10:29 AM",
        "priceRangeMax": 26,
        "priceRangeMin": 7,
        "restID": 228,
        "state": "Morelos",
        "zip": 79300
    },
    {
        "address": "Villa de Pozos 192 Villa de Pozos",
        "city": "San Luis Potosi",
        "closeHours": "9:31 PM",
        "country": "Mexico",
        "dressCodeID": 3,
        "name": "La Cantina Restaurante",
        "openHours": "9:41 AM",
        "priceRangeMax": 94,
        "priceRangeMin": 7,
        "restID": 229,
        "state": "SLP",
        "zip": 78310
    },
    {
        "address": "Ignacio Aldama 300 Centro",
        "city": "San Luis Potosi",
        "closeHours": "4:54 PM",
        "country": "Mexico",
        "dressCodeID": 5,
        "name": "La Cantina Restaurante",
        "openHours": "5:21 AM",
        "priceRangeMax": 79,
        "priceRangeMin": 7,
        "restID": 230,
        "state": "SLP",
        "zip": 78396
    },
    {
        "address": "Ignacio Aldama 300 Centro",
        "city": "San Luis Potosi",
        "closeHours": "2:43 PM",
        "country": "Mexico",
        "dressCodeID": 5,
        "name": "La Cantina Restaurante",
        "openHours": "3:12 AM",
        "priceRangeMax": 35,
        "priceRangeMin": 11,
        "restID": 231,
        "state": "SLP",
        "zip": 78433
    },
    {
        "address": "Ignacio Aldama 300 Centro",
        "city": "San Luis Potosi",
        "closeHours": "9:38 PM",
        "country": "Mexico",
        "dressCodeID": 1,
        "name": "La Cantina Restaurante",
        "openHours": "1:10 AM",
        "priceRangeMax": 85,
        "priceRangeMin": 11,
        "restID": 232,
        "state": "SLP",
        "zip": 78430
    },
    {
        "address": "Venustiano Carranza 2175 Jardin",
        "city": "San Luis Potosi",
        "closeHours": "3:36 PM",
        "country": "Mexico",
        "dressCodeID": 3,
        "name": "La Cantina Restaurante",
        "openHours": "11:50 AM",
        "priceRangeMax": 61,
        "priceRangeMin": 14,
        "restID": 233,
        "state": "S.L.P.",
        "zip": 64000
    },
    {
        "address": "Ignacio Aldama 300 Centro",
        "city": "San Luis Potosi",
        "closeHours": "7:11 PM",
        "country": "Mexico",
        "dressCodeID": 5,
        "name": "La Cantina Restaurante",
        "openHours": "4:29 AM",
        "priceRangeMax": 57,
        "priceRangeMin": 6,
        "restID": 234,
        "state": "SLP",
        "zip": 78421
    },
    {
        "address": "Venustiano Carranza 719 Centro",
        "city": "San Luis Potosi",
        "closeHours": "3:38 PM",
        "country": "Mexico",
        "dressCodeID": 2,
        "name": "La Cantina Restaurante",
        "openHours": "3:05 AM",
        "priceRangeMax": 86,
        "priceRangeMin": 17,
        "restID": 235,
        "state": "SLP",
        "zip": 78290
    },
    {
        "address": "Venustiano Carranza 1809 C Polanco",
        "city": "victoria ",
        "closeHours": "11:05 PM",
        "country": "Mexico",
        "dressCodeID": 5,
        "name": "La Cantina Restaurante",
        "openHours": "9:46 AM",
        "priceRangeMax": 78,
        "priceRangeMin": 15,
        "restID": 236,
        "state": null,
        "zip": 62790
    },
    {
        "address": "Venustiano Carranza 303 Centro",
        "city": "San Luis Potosi",
        "closeHours": "11:44 PM",
        "country": "Mexico",
        "dressCodeID": 5,
        "name": "La Cantina Restaurante",
        "openHours": "2:28 AM",
        "priceRangeMax": 28,
        "priceRangeMin": 16,
        "restID": 237,
        "state": "SLP",
        "zip": 78214
    },
    {
        "address": "Villa de Pozos 4497 Villa de Pozos",
        "city": "San Luis Potosi",
        "closeHours": "6:36 PM",
        "country": "Mexico",
        "dressCodeID": 4,
        "name": "La Cantina Restaurante",
        "openHours": "1:56 AM",
        "priceRangeMax": 82,
        "priceRangeMin": 9,
        "restID": 238,
        "state": "SLP",
        "zip": 78349
    },
    {
        "address": "Zaragoza entre Francisco Zarco y Lopez Velarde",
        "city": "San Luis Potosi",
        "closeHours": "10:25 PM",
        "country": "Mexico",
        "dressCodeID": 2,
        "name": "La Cantina Restaurante",
        "openHours": "5:55 AM",
        "priceRangeMax": 33,
        "priceRangeMin": 12,
        "restID": 239,
        "state": "SLP",
        "zip": 78390
    },
    {
        "address": "Ignacio Aldama 300 Centro",
        "city": "San Luis Potosi",
        "closeHours": "11:50 PM",
        "country": "Mexico",
        "dressCodeID": 1,
        "name": "La Cantina Restaurante",
        "openHours": "8:52 AM",
        "priceRangeMax": 27,
        "priceRangeMin": 11,
        "restID": 240,
        "state": "SLP",
        "zip": 78399
    },
    {
        "address": "Ignacio Aldama 300 Centro",
        "city": "San Luis Potosi",
        "closeHours": "9:56 PM",
        "country": "Mexico",
        "dressCodeID": 1,
        "name": "La Cantina Restaurante",
        "openHours": "8:31 AM",
        "priceRangeMax": 100,
        "priceRangeMin": 17,
        "restID": 241,
        "state": "SLP",
        "zip": 78395
    },
    {
        "address": "Venustiano Carranza 560 Centro",
        "city": "San Luis Potosi",
        "closeHours": "9:06 PM",
        "country": "Mexico",
        "dressCodeID": 2,
        "name": "La Cantina Restaurante",
        "openHours": "10:47 AM",
        "priceRangeMax": 89,
        "priceRangeMin": 16,
        "restID": 242,
        "state": "SLP",
        "zip": 78280
    },
    {
        "address": "Satelite 606 Satelite",
        "city": "San Luis Potosi",
        "closeHours": "10:56 PM",
        "country": "Mexico",
        "dressCodeID": 2,
        "name": "La Fontana Pizza Restaurante and Cafe",
        "openHours": "2:22 AM",
        "priceRangeMax": 71,
        "priceRangeMin": 6,
        "restID": 243,
        "state": "SLP",
        "zip": 78349
    },
    {
        "address": "Satelite 606 Satelite",
        "city": "San Luis Potosi",
        "closeHours": "4:28 PM",
        "country": "Mexico",
        "dressCodeID": 4,
        "name": "La Fontana Pizza Restaurante and Cafe",
        "openHours": "5:57 AM",
        "priceRangeMax": 57,
        "priceRangeMin": 7,
        "restID": 244,
        "state": "SLP",
        "zip": 78433
    },
    {
        "address": "Satelite 606 Satelite",
        "city": "San Luis Potosi",
        "closeHours": "8:59 PM",
        "country": "Mexico",
        "dressCodeID": 3,
        "name": "La Fontana Pizza Restaurante and Cafe",
        "openHours": "9:08 AM",
        "priceRangeMax": 72,
        "priceRangeMin": 20,
        "restID": 245,
        "state": "SLP",
        "zip": 78396
    },
    {
        "address": "Satelite 606 Satelite",
        "city": "San Luis Potosi",
        "closeHours": "2:19 PM",
        "country": "Mexico",
        "dressCodeID": 3,
        "name": "La Fontana Pizza Restaurante and Cafe",
        "openHours": "8:02 AM",
        "priceRangeMax": 37,
        "priceRangeMin": 14,
        "restID": 246,
        "state": "SLP",
        "zip": 78399
    },
    {
        "address": "Satelite 606 Satelite",
        "city": "San Luis Potosi",
        "closeHours": "6:32 PM",
        "country": "Mexico",
        "dressCodeID": 5,
        "name": "La Fontana Pizza Restaurante and Cafe",
        "openHours": "3:01 AM",
        "priceRangeMax": 99,
        "priceRangeMin": 5,
        "restID": 247,
        "state": "SLP",
        "zip": 78421
    },
    {
        "address": "Satelite 606 Satelite",
        "city": "San Luis Potosi",
        "closeHours": "9:00 PM",
        "country": "Mexico",
        "dressCodeID": 2,
        "name": "La Fontana Pizza Restaurante and Cafe",
        "openHours": "11:15 AM",
        "priceRangeMax": 47,
        "priceRangeMin": 11,
        "restID": 248,
        "state": "SLP",
        "zip": 78740
    },
    {
        "address": "Satelite 606 Satelite",
        "city": "San Luis Potosi",
        "closeHours": "2:13 PM",
        "country": "Mexico",
        "dressCodeID": 4,
        "name": "La Fontana Pizza Restaurante and Cafe",
        "openHours": "8:20 AM",
        "priceRangeMax": 57,
        "priceRangeMin": 20,
        "restID": 249,
        "state": "SLP",
        "zip": 78390
    },
    {
        "address": "Satelite 606 Satelite",
        "city": "San Luis Potosi",
        "closeHours": "3:38 PM",
        "country": "Mexico",
        "dressCodeID": 2,
        "name": "La Fontana Pizza Restaurante and Cafe",
        "openHours": "9:49 AM",
        "priceRangeMax": 77,
        "priceRangeMin": 6,
        "restID": 250,
        "state": "SLP",
        "zip": 87018
    },
    {
        "address": "Satelite 606 Satelite",
        "city": "San Luis Potosi",
        "closeHours": "5:15 PM",
        "country": "Mexico",
        "dressCodeID": 3,
        "name": "La Fontana Pizza Restaurante and Cafe",
        "openHours": "4:30 AM",
        "priceRangeMax": 40,
        "priceRangeMin": 9,
        "restID": 251,
        "state": "SLP",
        "zip": 78395
    },
    {
        "address": "Satelite 606 Satelite",
        "city": "San Luis Potosi",
        "closeHours": "11:50 PM",
        "country": "Mexico",
        "dressCodeID": 2,
        "name": "La Fontana Pizza Restaurante and Cafe",
        "openHours": "1:47 AM",
        "priceRangeMax": 45,
        "priceRangeMin": 13,
        "restID": 252,
        "state": "SLP",
        "zip": 78430
    },
    {
        "address": "Satelite 606 Satelite",
        "city": "San Luis Potosi",
        "closeHours": "7:34 PM",
        "country": "Mexico",
        "dressCodeID": 3,
        "name": "La Fontana Pizza Restaurante and Cafe",
        "openHours": "3:25 AM",
        "priceRangeMax": 82,
        "priceRangeMin": 14,
        "restID": 253,
        "state": "SLP",
        "zip": 62460
    },
    {
        "address": "Satelite 606 Satelite",
        "city": "San Luis Potosi",
        "closeHours": "8:17 PM",
        "country": "Mexico",
        "dressCodeID": 5,
        "name": "La Fontana Pizza Restaurante and Cafe",
        "openHours": "8:13 AM",
        "priceRangeMax": 87,
        "priceRangeMin": 12,
        "restID": 254,
        "state": "SLP",
        "zip": 79300
    },
    {
        "address": "Ricardo B. Anaya 2700 Estrella de Oriente",
        "city": "San Luis Potosi",
        "closeHours": "8:34 PM",
        "country": "Mexico",
        "dressCodeID": 5,
        "name": "Restaurante y Pescaderia Tampico",
        "openHours": "3:52 AM",
        "priceRangeMax": 35,
        "priceRangeMin": 20,
        "restID": 255,
        "state": "SLP",
        "zip": 78280
    },
    {
        "address": "Ricardo B. Anaya 2700 Estrella de Oriente",
        "city": "San Luis Potosi",
        "closeHours": "10:55 PM",
        "country": "Mexico",
        "dressCodeID": 2,
        "name": "Restaurante y Pescaderia Tampico",
        "openHours": "3:13 AM",
        "priceRangeMax": 46,
        "priceRangeMin": 16,
        "restID": 256,
        "state": "SLP",
        "zip": 78421
    },
    {
        "address": "Ricardo B. Anaya 2700 Estrella de Oriente",
        "city": "San Luis Potosi",
        "closeHours": "9:37 PM",
        "country": "Mexico",
        "dressCodeID": 3,
        "name": "Restaurante y Pescaderia Tampico",
        "openHours": "10:24 AM",
        "priceRangeMax": 44,
        "priceRangeMin": 5,
        "restID": 257,
        "state": "SLP",
        "zip": 78269
    },
    {
        "address": "Ricardo B. Anaya 2700 Estrella de Oriente",
        "city": "San Luis Potosi",
        "closeHours": "2:10 PM",
        "country": "Mexico",
        "dressCodeID": 2,
        "name": "Restaurante y Pescaderia Tampico",
        "openHours": "8:03 AM",
        "priceRangeMax": 49,
        "priceRangeMin": 5,
        "restID": 258,
        "state": "SLP",
        "zip": 78433
    },
    {
        "address": "Ricardo B. Anaya 2700 Estrella de Oriente",
        "city": "San Luis Potosi",
        "closeHours": "9:53 PM",
        "country": "Mexico",
        "dressCodeID": 3,
        "name": "Restaurante y Pescaderia Tampico",
        "openHours": "10:08 AM",
        "priceRangeMax": 95,
        "priceRangeMin": 15,
        "restID": 259,
        "state": "SLP",
        "zip": 78210
    },
    {
        "address": "Ricardo B. Anaya 2700 Estrella de Oriente",
        "city": "San Luis Potosi",
        "closeHours": "9:52 PM",
        "country": "Mexico",
        "dressCodeID": 1,
        "name": "Restaurante y Pescaderia Tampico",
        "openHours": "10:17 AM",
        "priceRangeMax": 79,
        "priceRangeMin": 5,
        "restID": 260,
        "state": "SLP",
        "zip": 78214
    },
    {
        "address": "Ricardo B. Anaya 2700 Estrella de Oriente",
        "city": "San Luis Potosi",
        "closeHours": "4:38 PM",
        "country": "Mexico",
        "dressCodeID": 3,
        "name": "Restaurante y Pescaderia Tampico",
        "openHours": "2:37 AM",
        "priceRangeMax": 56,
        "priceRangeMin": 7,
        "restID": 261,
        "state": "SLP",
        "zip": 78399
    },
    {
        "address": "Ricardo B. Anaya 2700 Estrella de Oriente",
        "city": "San Luis Potosi",
        "closeHours": "1:32 PM",
        "country": "Mexico",
        "dressCodeID": 5,
        "name": "Restaurante y Pescaderia Tampico",
        "openHours": "10:46 AM",
        "priceRangeMax": 45,
        "priceRangeMin": 5,
        "restID": 262,
        "state": "SLP",
        "zip": 78270
    },
    {
        "address": "Ricardo B. Anaya 2700 Estrella de Oriente",
        "city": "San Luis Potosi",
        "closeHours": "9:07 PM",
        "country": "Mexico",
        "dressCodeID": 3,
        "name": "Restaurante y Pescaderia Tampico",
        "openHours": "5:43 AM",
        "priceRangeMax": 46,
        "priceRangeMin": 8,
        "restID": 263,
        "state": "SLP",
        "zip": 78430
    },
    {
        "address": "Ricardo B. Anaya",
        "city": "San Luis Potosi",
        "closeHours": "5:22 PM",
        "country": "Mexico",
        "dressCodeID": 5,
        "name": "la Cochinita Pibil Restaurante Yucateco",
        "openHours": "2:23 AM",
        "priceRangeMax": 96,
        "priceRangeMin": 14,
        "restID": 264,
        "state": "SLP",
        "zip": 78200
    },
    {
        "address": "Rio Mayo Colonia Vista Hermosa Esq. Rio Balsas",
        "city": "San Luis Potosi",
        "closeHours": "7:03 PM",
        "country": "Mexico",
        "dressCodeID": 4,
        "name": "la Cochinita Pibil Restaurante Yucateco",
        "openHours": "6:37 AM",
        "priceRangeMax": 82,
        "priceRangeMin": 6,
        "restID": 265,
        "state": "SLP",
        "zip": 78269
    },
    {
        "address": "Pascual M. Hernandez 210 Centro",
        "city": "San Luis Potosi",
        "closeHours": "9:01 PM",
        "country": "Mexico",
        "dressCodeID": 3,
        "name": "la Cochinita Pibil Restaurante Yucateco",
        "openHours": "4:10 AM",
        "priceRangeMax": 52,
        "priceRangeMin": 11,
        "restID": 266,
        "state": "SLP",
        "zip": 62460
    },
    {
        "address": "Pascual M. Hernandez 240",
        "city": "San Luis Potosi",
        "closeHours": "8:15 PM",
        "country": "Mexico",
        "dressCodeID": 5,
        "name": "la Cochinita Pibil Restaurante Yucateco",
        "openHours": "9:30 AM",
        "priceRangeMax": 91,
        "priceRangeMin": 20,
        "restID": 267,
        "state": "SLP",
        "zip": 62790
    },
    {
        "address": "Rio Mayo 17 Vista Hermosa",
        "city": "San Luis Potosi",
        "closeHours": "2:19 PM",
        "country": "Mexico",
        "dressCodeID": 5,
        "name": "la Cochinita Pibil Restaurante Yucateco",
        "openHours": "11:41 AM",
        "priceRangeMax": 62,
        "priceRangeMin": 12,
        "restID": 268,
        "state": "SLP",
        "zip": 78214
    },
    {
        "address": "Ricardo B. Anaya 2700 Estrella de Oriente",
        "city": "San Luis Potosi",
        "closeHours": "2:21 PM",
        "country": "Mexico",
        "dressCodeID": 5,
        "name": "la Cochinita Pibil Restaurante Yucateco",
        "openHours": "7:26 AM",
        "priceRangeMax": 73,
        "priceRangeMin": 8,
        "restID": 269,
        "state": "SLP",
        "zip": 78210
    },
    {
        "address": "NICOLAS ZAPATA 300",
        "city": "San Luis Potosi",
        "closeHours": "10:56 PM",
        "country": "Mexico",
        "dressCodeID": 3,
        "name": "la Cochinita Pibil Restaurante Yucateco",
        "openHours": "2:53 AM",
        "priceRangeMax": 41,
        "priceRangeMin": 17,
        "restID": 270,
        "state": "SLP",
        "zip": 62320
    },
    {
        "address": "Plaza del Carmen",
        "city": "San Luis Potosi",
        "closeHours": "11:08 PM",
        "country": "Mexico",
        "dressCodeID": 2,
        "name": "la Cochinita Pibil Restaurante Yucateco",
        "openHours": "7:50 AM",
        "priceRangeMax": 37,
        "priceRangeMin": 11,
        "restID": 271,
        "state": "SLP",
        "zip": 74000
    },
    {
        "address": "Rayon sn col. Centro",
        "city": "San Luis Potosi",
        "closeHours": "2:13 PM",
        "country": "Mexico",
        "dressCodeID": 3,
        "name": "la Cochinita Pibil Restaurante Yucateco",
        "openHours": "1:13 AM",
        "priceRangeMax": 40,
        "priceRangeMin": 13,
        "restID": 272,
        "state": "SLP",
        "zip": 78038
    },
    {
        "address": "Paseo de las Fuentes",
        "city": "San Luis Potosi",
        "closeHours": "8:38 PM",
        "country": "Mexico",
        "dressCodeID": 4,
        "name": "la Cochinita Pibil Restaurante Yucateco",
        "openHours": "4:54 AM",
        "priceRangeMax": 48,
        "priceRangeMin": 11,
        "restID": 273,
        "state": "SLP",
        "zip": 64000
    },
    {
        "address": "Rio Papaloapan 265 Lomas de San Luis (3)",
        "city": "San Luis Potosi",
        "closeHours": "6:51 PM",
        "country": "Mexico",
        "dressCodeID": 5,
        "name": "la Cochinita Pibil Restaurante Yucateco",
        "openHours": "2:27 AM",
        "priceRangeMax": 58,
        "priceRangeMin": 9,
        "restID": 274,
        "state": "SLP",
        "zip": 78270
    },
    {
        "address": "r.b. anaya esq. florencia",
        "city": "San Luis Potosi",
        "closeHours": "4:13 PM",
        "country": "Mexico",
        "dressCodeID": 2,
        "name": "la Cochinita Pibil Restaurante Yucateco",
        "openHours": "1:54 AM",
        "priceRangeMax": 69,
        "priceRangeMin": 16,
        "restID": 275,
        "state": "SLP",
        "zip": 78000
    },
    {
        "address": "Angel Veral 328 Altamira",
        "city": "San Luis Potosi",
        "closeHours": "3:28 PM",
        "country": "Mexico",
        "dressCodeID": 1,
        "name": "Restaurante El Chivero S.A. de C.V.",
        "openHours": "7:17 AM",
        "priceRangeMax": 42,
        "priceRangeMin": 11,
        "restID": 276,
        "state": "SLP",
        "zip": 78000
    },
    {
        "address": "Angel Veral 328 Altamira",
        "city": "San Luis Potosi",
        "closeHours": "5:37 PM",
        "country": "Mexico",
        "dressCodeID": 5,
        "name": "Restaurante El Chivero S.A. de C.V.",
        "openHours": "3:27 AM",
        "priceRangeMax": 79,
        "priceRangeMin": 18,
        "restID": 277,
        "state": "SLP",
        "zip": 78038
    },
    {
        "address": "Angel Veral 328 Altamira",
        "city": "San Luis Potosi",
        "closeHours": "5:44 PM",
        "country": "Mexico",
        "dressCodeID": 1,
        "name": "Restaurante El Chivero S.A. de C.V.",
        "openHours": "5:54 AM",
        "priceRangeMax": 92,
        "priceRangeMin": 19,
        "restID": 278,
        "state": "SLP",
        "zip": 74000
    },
    {
        "address": "Angel Veral 328 Altamira",
        "city": "San Luis Potosi",
        "closeHours": "1:52 PM",
        "country": "Mexico",
        "dressCodeID": 4,
        "name": "Restaurante El Chivero S.A. de C.V.",
        "openHours": "6:53 AM",
        "priceRangeMax": 31,
        "priceRangeMin": 12,
        "restID": 279,
        "state": "SLP",
        "zip": 62790
    },
    {
        "address": "Angel Veral 328 Altamira",
        "city": "San Luis Potosi",
        "closeHours": "1:39 PM",
        "country": "Mexico",
        "dressCodeID": 2,
        "name": "Restaurante El Chivero S.A. de C.V.",
        "openHours": "6:50 AM",
        "priceRangeMax": 31,
        "priceRangeMin": 14,
        "restID": 280,
        "state": "SLP",
        "zip": 64000
    },
    {
        "address": "Angel Veral 328 Altamira",
        "city": "San Luis Potosi",
        "closeHours": "2:26 PM",
        "country": "Mexico",
        "dressCodeID": 4,
        "name": "Restaurante El Chivero S.A. de C.V.",
        "openHours": "2:58 AM",
        "priceRangeMax": 76,
        "priceRangeMin": 11,
        "restID": 281,
        "state": "SLP",
        "zip": 62290
    },
    {
        "address": "Angel Veral 328 Altamira",
        "city": "San Luis Potosi",
        "closeHours": "4:08 PM",
        "country": "Mexico",
        "dressCodeID": 1,
        "name": "Restaurante El Chivero S.A. de C.V.",
        "openHours": "8:25 AM",
        "priceRangeMax": 57,
        "priceRangeMin": 15,
        "restID": 282,
        "state": "SLP",
        "zip": 62460
    },
    {
        "address": "Angel Veral 328 Altamira",
        "city": "San Luis Potosi",
        "closeHours": "5:26 PM",
        "country": "Mexico",
        "dressCodeID": 4,
        "name": "Restaurante El Chivero S.A. de C.V.",
        "openHours": "11:29 AM",
        "priceRangeMax": 98,
        "priceRangeMin": 16,
        "restID": 283,
        "state": "SLP",
        "zip": 78200
    },
    {
        "address": "Angel Veral 328 Altamira",
        "city": "San Luis Potosi",
        "closeHours": "2:07 PM",
        "country": "Mexico",
        "dressCodeID": 1,
        "name": "Restaurante El Chivero S.A. de C.V.",
        "openHours": "1:57 AM",
        "priceRangeMax": 96,
        "priceRangeMin": 16,
        "restID": 284,
        "state": "SLP",
        "zip": 62320
    },
    {
        "address": "Emiliano Zapata No. 825 Tlaltenongo",
        "city": "San Luis Potosi",
        "closeHours": "11:48 PM",
        "country": "Mexico",
        "dressCodeID": 2,
        "name": "El angel Restaurante",
        "openHours": "7:58 AM",
        "priceRangeMax": 73,
        "priceRangeMin": 9,
        "restID": 285,
        "state": "SLP",
        "zip": 78000
    },
    {
        "address": "Industrias 908 Valle Dorado",
        "city": "San Luis Potosi",
        "closeHours": "3:50 PM",
        "country": "Mexico",
        "dressCodeID": 2,
        "name": "El angel Restaurante",
        "openHours": "9:15 AM",
        "priceRangeMax": 72,
        "priceRangeMin": 18,
        "restID": 286,
        "state": "SLP",
        "zip": 78390
    },
    {
        "address": "Tangamanga 7 Tangamanga",
        "city": "San Luis Potosi",
        "closeHours": "6:09 PM",
        "country": "Mexico",
        "dressCodeID": 4,
        "name": "El angel Restaurante",
        "openHours": "4:19 AM",
        "priceRangeMax": 100,
        "priceRangeMin": 17,
        "restID": 287,
        "state": "SLP",
        "zip": 62000
    },
    {
        "address": "Ignacio Aldama 300 Centro",
        "city": "San Luis Potosi",
        "closeHours": "3:16 PM",
        "country": "Mexico",
        "dressCodeID": 3,
        "name": "El angel Restaurante",
        "openHours": "10:05 AM",
        "priceRangeMax": 84,
        "priceRangeMin": 16,
        "restID": 288,
        "state": "SLP",
        "zip": 78310
    },
    {
        "address": "Soledad Sn Arboledas de Soledad",
        "city": "San Luis Potosi",
        "closeHours": "7:16 PM",
        "country": "mexico",
        "dressCodeID": 4,
        "name": "El angel Restaurante",
        "openHours": "7:29 AM",
        "priceRangeMax": 89,
        "priceRangeMin": 5,
        "restID": 289,
        "state": "SLP",
        "zip": 78430
    },
    {
        "address": "De Guadalupe 460 San Miguelito",
        "city": "San Luis Potosi",
        "closeHours": "11:13 PM",
        "country": "Mexico",
        "dressCodeID": 5,
        "name": "El angel Restaurante",
        "openHours": "11:08 AM",
        "priceRangeMax": 97,
        "priceRangeMin": 13,
        "restID": 290,
        "state": "SLP",
        "zip": 62460
    },
    {
        "address": "Universidad 169",
        "city": "San Luis Potosi",
        "closeHours": "7:07 PM",
        "country": "Mexico",
        "dressCodeID": 3,
        "name": "El angel Restaurante",
        "openHours": "5:18 AM",
        "priceRangeMax": 40,
        "priceRangeMin": 6,
        "restID": 291,
        "state": "SLP",
        "zip": 78740
    },
    {
        "address": "Lateral Salvador Nava Martinez 3145",
        "city": "San Luis Potosi",
        "closeHours": "9:33 PM",
        "country": "mexico",
        "dressCodeID": 2,
        "name": "El angel Restaurante",
        "openHours": "3:35 AM",
        "priceRangeMax": 95,
        "priceRangeMin": 20,
        "restID": 292,
        "state": "SLP",
        "zip": 78430
    },
    {
        "address": "Himno Nacional 2104 Tangamanga",
        "city": "San Luis Potosi",
        "closeHours": "11:50 PM",
        "country": "Mexico",
        "dressCodeID": 5,
        "name": "El angel Restaurante",
        "openHours": "9:15 AM",
        "priceRangeMax": 79,
        "priceRangeMin": 16,
        "restID": 293,
        "state": "SLP",
        "zip": 78280
    },
    {
        "address": "Himno nacional esq. Blvd. Juarez",
        "city": "San Luis Potosi",
        "closeHours": "7:50 PM",
        "country": "Mexico",
        "dressCodeID": 1,
        "name": "El angel Restaurante",
        "openHours": "2:36 AM",
        "priceRangeMax": 60,
        "priceRangeMin": 9,
        "restID": 294,
        "state": "SLP",
        "zip": 78290
    },
    {
        "address": "tampico",
        "city": "San Luis Potosi",
        "closeHours": "11:35 PM",
        "country": "mexico",
        "dressCodeID": 5,
        "name": "El angel Restaurante",
        "openHours": "7:39 AM",
        "priceRangeMax": 80,
        "priceRangeMin": 18,
        "restID": 295,
        "state": "SLP",
        "zip": 78433
    },
    {
        "address": "Jesus Goytortua 390 Tangamanga",
        "city": "San Luis Potosi",
        "closeHours": "8:16 PM",
        "country": "Mexico",
        "dressCodeID": 2,
        "name": "El angel Restaurante",
        "openHours": "8:08 AM",
        "priceRangeMax": 68,
        "priceRangeMin": 12,
        "restID": 296,
        "state": "SLP",
        "zip": 78396
    },
    {
        "address": "20 de Noviembre 1817 Tlaxcala",
        "city": "San Luis Potosi",
        "closeHours": "2:04 PM",
        "country": "Mexico",
        "dressCodeID": 5,
        "name": "Restaurante Guerra",
        "openHours": "11:47 AM",
        "priceRangeMax": 34,
        "priceRangeMin": 12,
        "restID": 297,
        "state": "SLP",
        "zip": 78038
    },
    {
        "address": "Costado Sur Central Camionera Km 2",
        "city": "San Luis Potosi",
        "closeHours": "4:56 PM",
        "country": "mexico",
        "dressCodeID": 5,
        "name": "Restaurante Bar El Gallinero",
        "openHours": "9:52 AM",
        "priceRangeMax": 21,
        "priceRangeMin": 6,
        "restID": 298,
        "state": "SLP",
        "zip": 78280
    },
    {
        "address": "Villa de Pozos 192 Villa de Pozos",
        "city": "San Luis Potosi",
        "closeHours": "3:35 PM",
        "country": "Mexico",
        "dressCodeID": 1,
        "name": "Restaurante Bar El Gallinero",
        "openHours": "6:41 AM",
        "priceRangeMax": 62,
        "priceRangeMin": 16,
        "restID": 299,
        "state": "SLP",
        "zip": 78038
    },
    {
        "address": "Pascual M. Hernandez 210 Centro",
        "city": "San Luis Potosi",
        "closeHours": "6:11 PM",
        "country": "Mexico",
        "dressCodeID": 5,
        "name": "Restaurante Bar El Gallinero",
        "openHours": "8:34 AM",
        "priceRangeMax": 43,
        "priceRangeMin": 15,
        "restID": 300,
        "state": "SLP",
        "zip": 78269
    },
    {
        "address": "Cordillera de Los Alpes 675 Loma Verde",
        "city": "San Luis Potosi",
        "closeHours": "6:10 PM",
        "country": "mexico",
        "dressCodeID": 2,
        "name": "Restaurante Bar El Gallinero",
        "openHours": "6:40 AM",
        "priceRangeMax": 26,
        "priceRangeMin": 7,
        "restID": 301,
        "state": "SLP",
        "zip": 62290
    },
    {
        "address": "Pascual M. Hernandez 210 Centro",
        "city": "San Luis Potosi",
        "closeHours": "4:12 PM",
        "country": "Mexico",
        "dressCodeID": 2,
        "name": "Restaurante Bar El Gallinero",
        "openHours": "8:12 AM",
        "priceRangeMax": 47,
        "priceRangeMin": 5,
        "restID": 302,
        "state": "SLP",
        "zip": 78280
    },
    {
        "address": "Pascual M. Hernandez 210 Centro",
        "city": "San Luis Potosi",
        "closeHours": "7:27 PM",
        "country": "Mexico",
        "dressCodeID": 5,
        "name": "Restaurante Bar El Gallinero",
        "openHours": "3:05 AM",
        "priceRangeMax": 21,
        "priceRangeMin": 12,
        "restID": 303,
        "state": "SLP",
        "zip": 78430
    },
    {
        "address": "Pascual M. Hernandez 210 Centro",
        "city": "San Luis Potosi",
        "closeHours": "8:23 PM",
        "country": "mexico",
        "dressCodeID": 3,
        "name": "Restaurante Bar El Gallinero",
        "openHours": "5:14 AM",
        "priceRangeMax": 81,
        "priceRangeMin": 10,
        "restID": 304,
        "state": "SLP",
        "zip": 78270
    },
    {
        "address": "Pascual M. Hernandez 210 Centro",
        "city": "San Luis Potosi",
        "closeHours": "1:23 PM",
        "country": "Mexico",
        "dressCodeID": 3,
        "name": "Restaurante Bar El Gallinero",
        "openHours": "9:17 AM",
        "priceRangeMax": 70,
        "priceRangeMin": 8,
        "restID": 305,
        "state": "SLP",
        "zip": 78214
    },
    {
        "address": "cd. mier",
        "city": "San Luis Potosi",
        "closeHours": "11:55 PM",
        "country": "Mexico",
        "dressCodeID": 2,
        "name": "Restaurante Bar El Gallinero",
        "openHours": "11:45 AM",
        "priceRangeMax": 44,
        "priceRangeMin": 9,
        "restID": 306,
        "state": "SLP",
        "zip": 87018
    },
    {
        "address": "Zaragoza entre Francisco Zarco y Lopez Velarde",
        "city": "San Luis Potosi",
        "closeHours": "1:16 PM",
        "country": "Mexico",
        "dressCodeID": 5,
        "name": "Restaurante Bar El Gallinero",
        "openHours": "4:49 AM",
        "priceRangeMax": 52,
        "priceRangeMin": 13,
        "restID": 307,
        "state": "SLP",
        "zip": 78210
    },
    {
        "address": "Villa de Pozos 4497 Villa de Pozos",
        "city": "San Luis Potosi",
        "closeHours": "5:08 PM",
        "country": "Mexico",
        "dressCodeID": 4,
        "name": "Restaurante Bar El Gallinero",
        "openHours": "1:02 AM",
        "priceRangeMax": 97,
        "priceRangeMin": 6,
        "restID": 308,
        "state": "SLP",
        "zip": 78200
    },
    {
        "address": "Pascual M. Hernandez 210 Centro",
        "city": "San Luis Potosi",
        "closeHours": "9:16 PM",
        "country": "Mexico",
        "dressCodeID": 1,
        "name": "Restaurante Bar El Gallinero",
        "openHours": "9:55 AM",
        "priceRangeMax": 86,
        "priceRangeMin": 15,
        "restID": 309,
        "state": "SLP",
        "zip": 78421
    },
    {
        "address": "Pascual M. Hernandez 210 Centro",
        "city": "San Luis Potosi",
        "closeHours": "7:45 PM",
        "country": "Mexico",
        "dressCodeID": 1,
        "name": "Restaurante Bar El Gallinero",
        "openHours": "9:57 AM",
        "priceRangeMax": 58,
        "priceRangeMin": 6,
        "restID": 310,
        "state": "SLP",
        "zip": 78399
    },
    {
        "address": "Venustiano Carranza 560 Centro",
        "city": "San Luis Potosi",
        "closeHours": "5:09 PM",
        "country": "Mexico",
        "dressCodeID": 2,
        "name": "Restaurante Bar El Gallinero",
        "openHours": "10:04 AM",
        "priceRangeMax": 50,
        "priceRangeMin": 18,
        "restID": 311,
        "state": "SLP",
        "zip": 74000
    },
    {
        "address": "Constitucion 200 Centro",
        "city": "San Luis Potosi",
        "closeHours": "9:35 PM",
        "country": "Mexico",
        "dressCodeID": 2,
        "name": "Restaurante Bar El Gallinero",
        "openHours": "2:51 AM",
        "priceRangeMax": 38,
        "priceRangeMin": 12,
        "restID": 312,
        "state": "SLP",
        "zip": 62170
    },
    {
        "address": "Cordillera de Los Alpes 160 Lomas 2 Seccion",
        "city": "San Luis Potosi",
        "closeHours": "10:07 PM",
        "country": "Mexico",
        "dressCodeID": 1,
        "name": "Restaurante Bar El Gallinero",
        "openHours": "10:49 AM",
        "priceRangeMax": 31,
        "priceRangeMin": 14,
        "restID": 313,
        "state": "SLP",
        "zip": 62250
    },
    {
        "address": "Venustiano Carranza 719 Centro",
        "city": "San Luis Potosi",
        "closeHours": "8:08 PM",
        "country": "Mexico",
        "dressCodeID": 1,
        "name": "Restaurante Bar El Gallinero",
        "openHours": "10:46 AM",
        "priceRangeMax": 39,
        "priceRangeMin": 13,
        "restID": 314,
        "state": "SLP",
        "zip": 78000
    },
    {
        "address": "circuito oriente esq. carretera 57",
        "city": "San Luis Potosi",
        "closeHours": "11:41 PM",
        "country": "Mexico",
        "dressCodeID": 3,
        "name": "Restaurante Bar El Gallinero",
        "openHours": "10:45 AM",
        "priceRangeMax": 61,
        "priceRangeMin": 17,
        "restID": 315,
        "state": "SLP",
        "zip": 62000
    },
    {
        "address": "Venustiano Carranza 303 Centro",
        "city": "San Luis Potosi",
        "closeHours": "9:03 PM",
        "country": "Mexico",
        "dressCodeID": 1,
        "name": "Restaurante la Parroquia Potosina",
        "openHours": "10:01 AM",
        "priceRangeMax": 27,
        "priceRangeMin": 10,
        "restID": 316,
        "state": "SLP",
        "zip": 78349
    },
    {
        "address": "Venustiano Carranza 303 Centro",
        "city": "San Luis Potosi",
        "closeHours": "9:49 PM",
        "country": "Mexico",
        "dressCodeID": 3,
        "name": "Restaurante la Parroquia Potosina",
        "openHours": "7:14 AM",
        "priceRangeMax": 78,
        "priceRangeMin": 15,
        "restID": 317,
        "state": "SLP",
        "zip": 78399
    },
    {
        "address": "Venustiano Carranza 303 Centro",
        "city": "San Luis Potosi",
        "closeHours": "11:18 PM",
        "country": "Mexico",
        "dressCodeID": 2,
        "name": "Restaurante la Parroquia Potosina",
        "openHours": "4:16 AM",
        "priceRangeMax": 36,
        "priceRangeMin": 13,
        "restID": 318,
        "state": "SLP",
        "zip": 78396
    },
    {
        "address": "Venustiano Carranza 303 Centro",
        "city": "San Luis Potosi",
        "closeHours": "7:37 PM",
        "country": "Mexico",
        "dressCodeID": 4,
        "name": "Restaurante la Parroquia Potosina",
        "openHours": "3:42 AM",
        "priceRangeMax": 59,
        "priceRangeMin": 13,
        "restID": 319,
        "state": "SLP",
        "zip": 78395
    },
    {
        "address": "Venustiano Carranza 303 Centro",
        "city": "San Luis Potosi",
        "closeHours": "4:26 PM",
        "country": "Mexico",
        "dressCodeID": 2,
        "name": "Restaurante la Parroquia Potosina",
        "openHours": "11:22 AM",
        "priceRangeMax": 76,
        "priceRangeMin": 20,
        "restID": 320,
        "state": "SLP",
        "zip": 78421
    },
    {
        "address": "Venustiano Carranza 303 Centro",
        "city": "San Luis Potosi",
        "closeHours": "11:28 PM",
        "country": "Mexico",
        "dressCodeID": 2,
        "name": "Restaurante la Parroquia Potosina",
        "openHours": "11:47 AM",
        "priceRangeMax": 36,
        "priceRangeMin": 20,
        "restID": 321,
        "state": "SLP",
        "zip": 78310
    },
    {
        "address": "Venustiano Carranza 303 Centro",
        "city": "San Luis Potosi",
        "closeHours": "7:24 PM",
        "country": "Mexico",
        "dressCodeID": 4,
        "name": "Restaurante la Parroquia Potosina",
        "openHours": "4:43 AM",
        "priceRangeMax": 95,
        "priceRangeMin": 5,
        "restID": 322,
        "state": "SLP",
        "zip": 78390
    },
    {
        "address": "Venustiano Carranza 303 Centro",
        "city": "San Luis Potosi",
        "closeHours": "7:59 PM",
        "country": "Mexico",
        "dressCodeID": 3,
        "name": "Restaurante la Parroquia Potosina",
        "openHours": "10:27 AM",
        "priceRangeMax": 36,
        "priceRangeMin": 11,
        "restID": 323,
        "state": "SLP",
        "zip": 78280
    },
    {
        "address": "Venustiano Carranza 303 Centro",
        "city": "San Luis Potosi",
        "closeHours": "11:54 PM",
        "country": "Mexico",
        "dressCodeID": 5,
        "name": "Restaurante la Parroquia Potosina",
        "openHours": "11:19 AM",
        "priceRangeMax": 44,
        "priceRangeMin": 16,
        "restID": 324,
        "state": "SLP",
        "zip": 78290
    },
    {
        "address": "Mexico 2015 Providencia",
        "city": "San Luis Potosi",
        "closeHours": "2:55 PM",
        "country": "Mexico",
        "dressCodeID": 3,
        "name": "Restaurante Pueblo Bonito",
        "openHours": "2:52 AM",
        "priceRangeMax": 40,
        "priceRangeMin": 18,
        "restID": 325,
        "state": "SLP",
        "zip": 78395
    },
    {
        "address": "Nereo Rodriguez Barragan 450 E Centro",
        "city": "San Luis Potosi",
        "closeHours": "1:19 PM",
        "country": "Mexico",
        "dressCodeID": 5,
        "name": "Koye Sushi",
        "openHours": "11:01 AM",
        "priceRangeMax": 41,
        "priceRangeMin": 6,
        "restID": 326,
        "state": "SLP",
        "zip": 78000
    },
    {
        "address": "Cordillera de Los Alpes 675 Loma Verde",
        "city": "San Luis Potosi",
        "closeHours": "10:07 PM",
        "country": "Mexico",
        "dressCodeID": 4,
        "name": "los Toneles",
        "openHours": "9:16 AM",
        "priceRangeMax": 35,
        "priceRangeMin": 20,
        "restID": 327,
        "state": "SLP",
        "zip": 62250
    },
    {
        "address": "Cordillera de Los Alpes 160 Lomas 2 Seccion",
        "city": "San Luis Potosi",
        "closeHours": "8:19 PM",
        "country": "Mexico",
        "dressCodeID": 3,
        "name": "los Toneles",
        "openHours": "8:15 AM",
        "priceRangeMax": 82,
        "priceRangeMin": 15,
        "restID": 328,
        "state": "SLP",
        "zip": 62170
    },
    {
        "address": "Ignacio Allende 785 Centro",
        "city": "San Luis Potosi",
        "closeHours": "8:30 PM",
        "country": "Mexico",
        "dressCodeID": 4,
        "name": "los Toneles",
        "openHours": "2:57 AM",
        "priceRangeMax": 83,
        "priceRangeMin": 11,
        "restID": 329,
        "state": "SLP",
        "zip": 78349
    },
    {
        "address": "De La Estrella 2005 Estrella de Oriente",
        "city": "San Luis Potosi",
        "closeHours": "9:17 PM",
        "country": "Mexico",
        "dressCodeID": 4,
        "name": "los Toneles",
        "openHours": "9:12 AM",
        "priceRangeMax": 86,
        "priceRangeMin": 13,
        "restID": 330,
        "state": "SLP",
        "zip": 62790
    },
    {
        "address": "General Mariano Arista 1205 Barrio de Tequisquiap",
        "city": "San Luis Potosi",
        "closeHours": "10:13 PM",
        "country": "Mexico",
        "dressCodeID": 4,
        "name": "los Toneles",
        "openHours": "1:51 AM",
        "priceRangeMax": 67,
        "priceRangeMin": 13,
        "restID": 331,
        "state": "SLP",
        "zip": 78250
    },
    {
        "address": "Libramiento Burgos Colonia Las Animas",
        "city": "San Luis Potosi",
        "closeHours": "2:20 PM",
        "country": "Mexico",
        "dressCodeID": 2,
        "name": "los Toneles",
        "openHours": "4:25 AM",
        "priceRangeMax": 36,
        "priceRangeMin": 10,
        "restID": 332,
        "state": "SLP",
        "zip": 78433
    },
    {
        "address": "Costado Sur Central Camionera Km 2",
        "city": "San Luis Potosi",
        "closeHours": "6:13 PM",
        "country": "Mexico",
        "dressCodeID": 1,
        "name": "los Toneles",
        "openHours": "4:28 AM",
        "priceRangeMax": 95,
        "priceRangeMin": 7,
        "restID": 333,
        "state": "SLP",
        "zip": 62290
    },
    {
        "address": "Guajardo Sn San Luis Potosi Centro",
        "city": "San Luis Potosi",
        "closeHours": "11:33 PM",
        "country": "Mexico",
        "dressCodeID": 4,
        "name": "los Toneles",
        "openHours": "9:23 AM",
        "priceRangeMax": 42,
        "priceRangeMin": 10,
        "restID": 334,
        "state": "SLP",
        "zip": 78269
    },
    {
        "address": "Interior Internado Palmira SN",
        "city": "San Luis Potosi",
        "closeHours": "2:51 PM",
        "country": "Mexico",
        "dressCodeID": 2,
        "name": "los Toneles",
        "openHours": "2:13 AM",
        "priceRangeMax": 21,
        "priceRangeMin": 20,
        "restID": 335,
        "state": "SLP",
        "zip": 78395
    },
    {
        "address": "Julian de Los Reyes 400 Centro",
        "city": "San Luis Potosi",
        "closeHours": "11:23 PM",
        "country": "Mexico",
        "dressCodeID": 5,
        "name": "los Toneles",
        "openHours": "9:52 AM",
        "priceRangeMax": 84,
        "priceRangeMin": 20,
        "restID": 336,
        "state": "SLP",
        "zip": 78399
    },
    {
        "address": "Himno Nacional 100 Avenida",
        "city": "San Luis Potosi",
        "closeHours": "10:16 PM",
        "country": "Mexico",
        "dressCodeID": 2,
        "name": "los Toneles",
        "openHours": "9:39 AM",
        "priceRangeMax": 95,
        "priceRangeMin": 18,
        "restID": 337,
        "state": "SLP",
        "zip": 78270
    },
    {
        "address": "La Pradera",
        "city": "San Luis Potosi",
        "closeHours": "6:41 PM",
        "country": "Mexico",
        "dressCodeID": 2,
        "name": "los Toneles",
        "openHours": "5:12 AM",
        "priceRangeMax": 38,
        "priceRangeMin": 5,
        "restID": 338,
        "state": "SLP",
        "zip": 78421
    },
    {
        "address": "Venustiano Carranza 1625 Jardin",
        "city": "victoria",
        "closeHours": "5:54 PM",
        "country": "Mexico",
        "dressCodeID": 2,
        "name": "La Posada del Virrey",
        "openHours": "4:14 AM",
        "priceRangeMax": 21,
        "priceRangeMin": 19,
        "restID": 339,
        "state": "San Luis Potosi",
        "zip": 62320
    },
    {
        "address": "Universidad 169",
        "city": "slp",
        "closeHours": "1:43 PM",
        "country": "Mexico",
        "dressCodeID": 4,
        "name": "La Posada del Virrey",
        "openHours": "4:43 AM",
        "priceRangeMax": 68,
        "priceRangeMin": 19,
        "restID": 340,
        "state": "San Luis Potosi",
        "zip": 62250
    },
    {
        "address": "Venustiano Carranza 303 Centro",
        "city": "San Luis Potosi",
        "closeHours": "1:14 PM",
        "country": "Mexico",
        "dressCodeID": 3,
        "name": "La Posada del Virrey",
        "openHours": "9:25 AM",
        "priceRangeMax": 56,
        "priceRangeMin": 14,
        "restID": 341,
        "state": "San Luis Potosi",
        "zip": 64000
    },
    {
        "address": "Venustiano Carranza 1809 C Polanco",
        "city": "victoria ",
        "closeHours": "8:25 PM",
        "country": "Mexico",
        "dressCodeID": 2,
        "name": "La Posada del Virrey",
        "openHours": "10:05 AM",
        "priceRangeMax": 69,
        "priceRangeMin": 5,
        "restID": 342,
        "state": "San Luis Potosi",
        "zip": 62460
    },
    {
        "address": "sevilla y olmedo 715 a",
        "city": "s.l.p.",
        "closeHours": "2:52 PM",
        "country": "Mexico",
        "dressCodeID": 5,
        "name": "La Posada del Virrey",
        "openHours": "11:20 AM",
        "priceRangeMax": 42,
        "priceRangeMin": 18,
        "restID": 343,
        "state": "San Luis Potosi",
        "zip": 79300
    },
    {
        "address": "tampico",
        "city": "San Luis Potosi",
        "closeHours": "10:08 PM",
        "country": "Mexico",
        "dressCodeID": 3,
        "name": "La Posada del Virrey",
        "openHours": "6:26 AM",
        "priceRangeMax": 57,
        "priceRangeMin": 13,
        "restID": 344,
        "state": "San Luis Potosi",
        "zip": 62000
    },
    {
        "address": "Rio Papaloapan 265 Lomas de San Luis (3)",
        "city": "Cuernavaca",
        "closeHours": "3:57 PM",
        "country": "Mexico",
        "dressCodeID": 5,
        "name": "La Posada del Virrey",
        "openHours": "11:17 AM",
        "priceRangeMax": 96,
        "priceRangeMin": 9,
        "restID": 345,
        "state": "San Luis Potosi",
        "zip": 78430
    },
    {
        "address": "Satelite 606 Satelite",
        "city": "s.l.p",
        "closeHours": "4:30 PM",
        "country": "Mexico",
        "dressCodeID": 3,
        "name": "La Posada del Virrey",
        "openHours": "6:09 AM",
        "priceRangeMax": 51,
        "priceRangeMin": 11,
        "restID": 346,
        "state": "San Luis Potosi",
        "zip": 78740
    },
    {
        "address": "Rio Mayo 17 Vista Hermosa",
        "city": "Cd. Victoria",
        "closeHours": "6:54 PM",
        "country": "Mexico",
        "dressCodeID": 5,
        "name": "La Posada del Virrey",
        "openHours": "9:13 AM",
        "priceRangeMax": 35,
        "priceRangeMin": 6,
        "restID": 347,
        "state": "Morelos",
        "zip": 78399
    },
    {
        "address": "Rio Mayo Colonia Vista Hermosa Esq. Rio Balsas",
        "city": "Ciudad Victoria",
        "closeHours": "1:34 PM",
        "country": "Mexico",
        "dressCodeID": 4,
        "name": "La Posada del Virrey",
        "openHours": "7:34 AM",
        "priceRangeMax": 27,
        "priceRangeMin": 13,
        "restID": 348,
        "state": "S.L.P.",
        "zip": 78421
    },
    {
        "address": "venustiano carranza",
        "city": "Soledad",
        "closeHours": "9:22 PM",
        "country": "Mexico",
        "dressCodeID": 1,
        "name": "La Posada del Virrey",
        "openHours": "11:44 AM",
        "priceRangeMax": 100,
        "priceRangeMin": 12,
        "restID": 349,
        "state": "San Luis Potosi",
        "zip": 62290
    },
    {
        "address": "Soledad Sn Arboledas de Soledad",
        "city": "san luis potos",
        "closeHours": "8:16 PM",
        "country": "Mexico",
        "dressCodeID": 3,
        "name": "La Posada del Virrey",
        "openHours": "8:55 AM",
        "priceRangeMax": 25,
        "priceRangeMin": 14,
        "restID": 350,
        "state": "San Luis Potosi",
        "zip": 87018
    },
    {
        "address": "Venustiano Carranza 2175 Jardin",
        "city": "San Luis Potosi",
        "closeHours": "6:29 PM",
        "country": "Mexico",
        "dressCodeID": 2,
        "name": "La Posada del Virrey",
        "openHours": "10:53 AM",
        "priceRangeMax": 98,
        "priceRangeMin": 12,
        "restID": 351,
        "state": "San Luis Potosi",
        "zip": 62790
    },
    {
        "address": "Tangamanga 7 Tangamanga",
        "city": "san luis potosi ",
        "closeHours": "3:54 PM",
        "country": "Mexico",
        "dressCodeID": 1,
        "name": "La Posada del Virrey",
        "openHours": "2:19 AM",
        "priceRangeMax": 63,
        "priceRangeMin": 7,
        "restID": 352,
        "state": "San Luis Potosi",
        "zip": 62170
    },
    {
        "address": "Santos Degollado 745 los Alamitos",
        "city": "Jiutepec",
        "closeHours": "4:47 PM",
        "country": "Mexico",
        "dressCodeID": 1,
        "name": "La Posada del Virrey",
        "openHours": "8:32 AM",
        "priceRangeMax": 92,
        "priceRangeMin": 20,
        "restID": 353,
        "state": "San Luis Potosi",
        "zip": 78433
    },
    {
        "address": "Av. V. Carranza",
        "city": "San Luis Potosi",
        "closeHours": "5:22 PM",
        "country": "Mexico",
        "dressCodeID": 1,
        "name": "Chaires",
        "openHours": "8:24 AM",
        "priceRangeMax": 74,
        "priceRangeMin": 8,
        "restID": 354,
        "state": "Tamaulipas",
        "zip": 62320
    },
    {
        "address": "Av. Carranza 830",
        "city": "Soledad",
        "closeHours": "3:45 PM",
        "country": "Mexico",
        "dressCodeID": 5,
        "name": "Chaires",
        "openHours": "2:34 AM",
        "priceRangeMax": 95,
        "priceRangeMin": 17,
        "restID": 355,
        "state": "Morelos",
        "zip": 78421
    },
    {
        "address": "Av. Coral",
        "city": "victoria",
        "closeHours": "5:00 PM",
        "country": "Mexico",
        "dressCodeID": 2,
        "name": "Chaires",
        "openHours": "3:30 AM",
        "priceRangeMax": 89,
        "priceRangeMin": 19,
        "restID": 356,
        "state": "S.L.P.",
        "zip": 62000
    },
    {
        "address": "Av. Saan Luis enttre moctezuma y salinas",
        "city": "San Luis Potosi",
        "closeHours": "9:40 PM",
        "country": "Mexico",
        "dressCodeID": 5,
        "name": "Chaires",
        "openHours": "6:45 AM",
        "priceRangeMax": 92,
        "priceRangeMin": 20,
        "restID": 357,
        "state": "San Luis Potosi",
        "zip": 62250
    },
    {
        "address": "Av. de los Pintores",
        "city": "victoria ",
        "closeHours": "11:18 PM",
        "country": "Mexico",
        "dressCodeID": 1,
        "name": "Chaires",
        "openHours": "6:54 AM",
        "priceRangeMax": 89,
        "priceRangeMin": 8,
        "restID": 358,
        "state": "san luis potos",
        "zip": 62170
    },
    {
        "address": "av. seminario",
        "city": "San Luis Potosi",
        "closeHours": "8:54 PM",
        "country": "Mexico",
        "dressCodeID": 4,
        "name": "Chaires",
        "openHours": "6:06 AM",
        "priceRangeMax": 44,
        "priceRangeMin": 10,
        "restID": 359,
        "state": "SLP",
        "zip": 62290
    },
    {
        "address": "Pascual M. Hernandez 210 Centro",
        "city": "victoria",
        "closeHours": "3:20 PM",
        "country": "Mexico",
        "dressCodeID": 5,
        "name": "carnitas_mata",
        "openHours": "3:01 AM",
        "priceRangeMax": 84,
        "priceRangeMin": 10,
        "restID": 360,
        "state": "Tamaulipas",
        "zip": 87018
    },
    {
        "address": "lic. Emilio portes gil",
        "city": "victoria",
        "closeHours": "8:53 PM",
        "country": "Mexico",
        "dressCodeID": 3,
        "name": "carnitas_mata",
        "openHours": "1:52 AM",
        "priceRangeMax": 72,
        "priceRangeMin": 16,
        "restID": 361,
        "state": "Tamaulipas",
        "zip": 78740
    },
    {
        "address": "lic. Emilio portes gil",
        "city": "victoria",
        "closeHours": "2:15 PM",
        "country": "Mexico",
        "dressCodeID": 2,
        "name": "carnitas_mata",
        "openHours": "11:10 AM",
        "priceRangeMax": 66,
        "priceRangeMin": 20,
        "restID": 362,
        "state": "Tamaulipas",
        "zip": 62000
    },
    {
        "address": "Julian de Los Reyes 400 Centro",
        "city": "San Luis Potosi",
        "closeHours": "9:34 PM",
        "country": "Mexico",
        "dressCodeID": 3,
        "name": "Dominos Pizza",
        "openHours": "5:54 AM",
        "priceRangeMax": 70,
        "priceRangeMin": 18,
        "restID": 363,
        "state": "San Luis Potosi",
        "zip": 62790
    },
    {
        "address": "La Pradera",
        "city": "San Luis Potosi",
        "closeHours": "11:28 PM",
        "country": "Mexico",
        "dressCodeID": 2,
        "name": "Dominos Pizza",
        "openHours": "4:00 AM",
        "priceRangeMax": 68,
        "priceRangeMin": 14,
        "restID": 364,
        "state": "San Luis Potosi",
        "zip": 64000
    },
    {
        "address": "Jesus Goytortua 390 Tangamanga",
        "city": "San Luis Potosi",
        "closeHours": "5:00 PM",
        "country": "Mexico",
        "dressCodeID": 4,
        "name": "Dominos Pizza",
        "openHours": "8:16 AM",
        "priceRangeMax": 29,
        "priceRangeMin": 5,
        "restID": 365,
        "state": "San Luis Potosi",
        "zip": 87018
    },
    {
        "address": "De Guadalupe 460 San Miguelito",
        "city": "s.l.p",
        "closeHours": "3:09 PM",
        "country": "Mexico",
        "dressCodeID": 5,
        "name": "Pizzeria Julios",
        "openHours": "7:40 AM",
        "priceRangeMax": 60,
        "priceRangeMin": 12,
        "restID": 366,
        "state": null,
        "zip": 64000
    },
    {
        "address": "20 de Noviembre 1817 Tlaxcala",
        "city": "s.l.p",
        "closeHours": "1:14 PM",
        "country": "Mexico",
        "dressCodeID": 5,
        "name": "Pizzeria Julios",
        "openHours": "3:52 AM",
        "priceRangeMax": 96,
        "priceRangeMin": 15,
        "restID": 367,
        "state": null,
        "zip": 62250
    },
    {
        "address": "524 Soledad de Graciano Sanchez",
        "city": "Jiutepec",
        "closeHours": "5:38 PM",
        "country": "Mexico",
        "dressCodeID": 4,
        "name": "Pizzeria Julios",
        "openHours": "5:39 AM",
        "priceRangeMax": 77,
        "priceRangeMin": 12,
        "restID": 368,
        "state": "San Luis Potosi",
        "zip": 87018
    },
    {
        "address": "1a. de Lozada 1",
        "city": "s.l.p",
        "closeHours": "11:58 PM",
        "country": "Mexico",
        "dressCodeID": 4,
        "name": "Pizzeria Julios",
        "openHours": "3:18 AM",
        "priceRangeMax": 67,
        "priceRangeMin": 10,
        "restID": 369,
        "state": null,
        "zip": 62170
    },
    {
        "address": "De La Estrella 2005 Estrella de Oriente",
        "city": "s.l.p",
        "closeHours": "7:21 PM",
        "country": "Mexico",
        "dressCodeID": 2,
        "name": "Pizzeria Julios",
        "openHours": "7:33 AM",
        "priceRangeMax": 98,
        "priceRangeMin": 19,
        "restID": 370,
        "state": null,
        "zip": 74000
    },
    {
        "address": "40 Norte Civac 1RA. Seccion",
        "city": "Cuernavaca",
        "closeHours": "5:51 PM",
        "country": "Mexico",
        "dressCodeID": 1,
        "name": "Pizzeria Julios",
        "openHours": "2:42 AM",
        "priceRangeMax": 81,
        "priceRangeMin": 14,
        "restID": 371,
        "state": "san luis potos",
        "zip": 79300
    },
    {
        "address": "avenida salvador montiel ",
        "city": "Jiutepec",
        "closeHours": "5:40 PM",
        "country": "Mexico",
        "dressCodeID": 4,
        "name": "la perica hamburguesa",
        "openHours": "5:53 AM",
        "priceRangeMax": 93,
        "priceRangeMin": 13,
        "restID": 372,
        "state": "tamaulipas",
        "zip": 78280
    },
    {
        "address": "calle emilio portes gil",
        "city": "s.l.p",
        "closeHours": "11:53 PM",
        "country": "Mexico",
        "dressCodeID": 3,
        "name": "la perica hamburguesa",
        "openHours": "4:15 AM",
        "priceRangeMax": 100,
        "priceRangeMin": 12,
        "restID": 373,
        "state": "tamaulipas",
        "zip": 78290
    },
    {
        "address": "Camino a Simon Diaz 155 Centro",
        "city": "san luis potos",
        "closeHours": "10:27 PM",
        "country": "Mexico",
        "dressCodeID": 5,
        "name": "la perica hamburguesa",
        "openHours": "10:31 AM",
        "priceRangeMax": 28,
        "priceRangeMin": 14,
        "restID": 374,
        "state": "tamaulipas",
        "zip": 78349
    },
    {
        "address": "cd. mier",
        "city": "san luis potosi ",
        "closeHours": "9:39 PM",
        "country": "Mexico",
        "dressCodeID": 5,
        "name": "la perica hamburguesa",
        "openHours": "6:32 AM",
        "priceRangeMax": 88,
        "priceRangeMin": 9,
        "restID": 375,
        "state": "tamaulipas",
        "zip": 78740
    },
    {
        "address": "Calle Mezquite Fracc Framboyanes",
        "city": "s.l.p.",
        "closeHours": "10:35 PM",
        "country": "Mexico",
        "dressCodeID": 2,
        "name": "la perica hamburguesa",
        "openHours": "10:45 AM",
        "priceRangeMax": 79,
        "priceRangeMin": 14,
        "restID": 376,
        "state": "tamaulipas",
        "zip": 78310
    },
    {
        "address": "carr. mexico",
        "city": "San Luis Potosi",
        "closeHours": "9:22 PM",
        "country": "Mexico",
        "dressCodeID": 4,
        "name": "la perica hamburguesa",
        "openHours": "7:08 AM",
        "priceRangeMax": 75,
        "priceRangeMin": 9,
        "restID": 377,
        "state": "tamaulipas",
        "zip": 78433
    },
    {
        "address": "36 Sur Civac",
        "city": "Ciudad Victoria",
        "closeHours": "6:58 PM",
        "country": "Mexico",
        "dressCodeID": 1,
        "name": "cafe punta del cielo",
        "openHours": "10:30 AM",
        "priceRangeMax": 79,
        "priceRangeMin": 16,
        "restID": 378,
        "state": "S.L.P.",
        "zip": 78038
    },
    {
        "address": "20 de Noviembre 1817 Tlaxcala",
        "city": "Cd. Victoria",
        "closeHours": "10:55 PM",
        "country": "Mexico",
        "dressCodeID": 3,
        "name": "cafe punta del cielo",
        "openHours": "1:39 AM",
        "priceRangeMax": 88,
        "priceRangeMin": 6,
        "restID": 379,
        "state": "Morelos",
        "zip": 78000
    },
    {
        "address": "1a. de Lozada 1",
        "city": "Cd Victoria",
        "closeHours": "11:14 PM",
        "country": "Mexico",
        "dressCodeID": 5,
        "name": "cafe punta del cielo",
        "openHours": "5:21 AM",
        "priceRangeMax": 30,
        "priceRangeMin": 12,
        "restID": 380,
        "state": null,
        "zip": 74000
    },
    {
        "address": "Emiliano Zapata Col. Tres de Mayo",
        "city": "Cd. Victoria",
        "closeHours": "5:23 PM",
        "country": "Mexico",
        "dressCodeID": 2,
        "name": "el pueblito",
        "openHours": "7:56 AM",
        "priceRangeMax": 52,
        "priceRangeMin": 16,
        "restID": 381,
        "state": "Morelos",
        "zip": 78038
    },
    {
        "address": "Emiliano Zapata No. 825 Tlaltenongo",
        "city": "Ciudad Victoria",
        "closeHours": "3:01 PM",
        "country": "Mexico",
        "dressCodeID": 5,
        "name": "el pueblito",
        "openHours": "8:44 AM",
        "priceRangeMax": 88,
        "priceRangeMin": 20,
        "restID": 382,
        "state": "S.L.P.",
        "zip": 78200
    },
    {
        "address": "Domingo 10 711 El Empleado",
        "city": "Cd Victoria",
        "closeHours": "3:51 PM",
        "country": "Mexico",
        "dressCodeID": 5,
        "name": "el pueblito",
        "openHours": "4:50 AM",
        "priceRangeMax": 52,
        "priceRangeMin": 6,
        "restID": 383,
        "state": null,
        "zip": 78000
    },
    {
        "address": "Rio Mayo Colonia Vista Hermosa Esq. Rio Balsas",
        "city": "Cuernavaca",
        "closeHours": "10:56 PM",
        "country": "Mexico",
        "dressCodeID": 1,
        "name": "Chilis Cuernavaca",
        "openHours": "9:29 AM",
        "priceRangeMax": 86,
        "priceRangeMin": 14,
        "restID": 384,
        "state": "Morelos",
        "zip": 62290
    },
    {
        "address": "Lomas del Mirador",
        "city": "Cuernavaca",
        "closeHours": "1:27 PM",
        "country": "Mexico",
        "dressCodeID": 2,
        "name": "Sanborns Casa Piedra",
        "openHours": "11:45 AM",
        "priceRangeMax": 22,
        "priceRangeMin": 13,
        "restID": 385,
        "state": "Morelos",
        "zip": 62170
    },
    {
        "address": "Lomas del Mirador",
        "city": "Cuernavaca",
        "closeHours": "11:44 PM",
        "country": "Mexico",
        "dressCodeID": 3,
        "name": "Sanborns Casa Piedra",
        "openHours": "8:54 AM",
        "priceRangeMax": 89,
        "priceRangeMin": 20,
        "restID": 386,
        "state": "Morelos",
        "zip": 62000
    },
    {
        "address": "Lomas del Mirador",
        "city": "Cuernavaca",
        "closeHours": "5:28 PM",
        "country": "Mexico",
        "dressCodeID": 4,
        "name": "Sanborns Casa Piedra",
        "openHours": "4:54 AM",
        "priceRangeMax": 55,
        "priceRangeMin": 8,
        "restID": 387,
        "state": "Morelos",
        "zip": 62250
    },
    {
        "address": "Santos Degollado 745 los Alamitos",
        "city": "Cuernavaca",
        "closeHours": "2:03 PM",
        "country": "mexico",
        "dressCodeID": 3,
        "name": "Restaurant los Pinos",
        "openHours": "3:45 AM",
        "priceRangeMax": 37,
        "priceRangeMin": 11,
        "restID": 388,
        "state": "Morelos",
        "zip": 78250
    },
    {
        "address": "Rio Papaloapan 265 Lomas de San Luis (3)",
        "city": "Cuernavaca",
        "closeHours": "2:09 PM",
        "country": "mexico",
        "dressCodeID": 3,
        "name": "Restaurant los Pinos",
        "openHours": "1:07 AM",
        "priceRangeMax": 59,
        "priceRangeMin": 17,
        "restID": 389,
        "state": "Morelos",
        "zip": 78240
    },
    {
        "address": "Satelite 606 Satelite",
        "city": "Cuernavaca",
        "closeHours": "5:53 PM",
        "country": "Mexico",
        "dressCodeID": 4,
        "name": "Restaurant los Pinos",
        "openHours": "6:56 AM",
        "priceRangeMax": 35,
        "priceRangeMin": 10,
        "restID": 390,
        "state": "Morelos",
        "zip": 78269
    },
    {
        "address": "Emiliano Zapata No. 825 Tlaltenongo",
        "city": "Cuernavaca",
        "closeHours": "4:51 PM",
        "country": "Mexico",
        "dressCodeID": 2,
        "name": "Vips",
        "openHours": "5:57 AM",
        "priceRangeMax": 40,
        "priceRangeMin": 10,
        "restID": 391,
        "state": "Morelos",
        "zip": 62170
    },
    {
        "address": "Emiliano Zapata No. 825 Tlaltenongo",
        "city": "Cuernavaca",
        "closeHours": "2:58 PM",
        "country": "Mexico",
        "dressCodeID": 4,
        "name": "Vips",
        "openHours": "5:16 AM",
        "priceRangeMax": 70,
        "priceRangeMin": 20,
        "restID": 392,
        "state": "Morelos",
        "zip": 79300
    },
    {
        "address": "Emiliano Zapata No. 825 Tlaltenongo",
        "city": "Cuernavaca",
        "closeHours": "9:34 PM",
        "country": "Mexico",
        "dressCodeID": 2,
        "name": "Vips",
        "openHours": "2:33 AM",
        "priceRangeMax": 89,
        "priceRangeMin": 12,
        "restID": 393,
        "state": "Morelos",
        "zip": 78433
    },
    {
        "address": "Emiliano Zapata No. 825 Tlaltenongo",
        "city": "Cuernavaca",
        "closeHours": "5:59 PM",
        "country": "mexico",
        "dressCodeID": 2,
        "name": "Vips",
        "openHours": "2:26 AM",
        "priceRangeMax": 37,
        "priceRangeMin": 17,
        "restID": 394,
        "state": "Morelos",
        "zip": 78430
    },
    {
        "address": "Emiliano Zapata No. 825 Tlaltenongo",
        "city": "Cuernavaca",
        "closeHours": "3:05 PM",
        "country": "mexico",
        "dressCodeID": 5,
        "name": "Vips",
        "openHours": "3:41 AM",
        "priceRangeMax": 72,
        "priceRangeMin": 7,
        "restID": 395,
        "state": "Morelos",
        "zip": 78740
    },
    {
        "address": "Emiliano Zapata No. 825 Tlaltenongo",
        "city": "Cuernavaca",
        "closeHours": "2:53 PM",
        "country": "Mexico",
        "dressCodeID": 5,
        "name": "Vips",
        "openHours": "9:26 AM",
        "priceRangeMax": 97,
        "priceRangeMin": 12,
        "restID": 396,
        "state": "Morelos",
        "zip": 87018
    },
    {
        "address": "De Guadalupe 460 San Miguelito",
        "city": "san luis potosi",
        "closeHours": "6:25 PM",
        "country": "Mexico",
        "dressCodeID": 1,
        "name": "la parroquia",
        "openHours": "3:44 AM",
        "priceRangeMax": 60,
        "priceRangeMin": 9,
        "restID": 397,
        "state": "san luis potosi",
        "zip": 78290
    },
    {
        "address": "De La Estrella 2005 Estrella de Oriente",
        "city": "san luis potosi",
        "closeHours": "5:28 PM",
        "country": "Mexico",
        "dressCodeID": 2,
        "name": "la parroquia",
        "openHours": "6:58 AM",
        "priceRangeMax": 43,
        "priceRangeMin": 20,
        "restID": 398,
        "state": "san luis potosi",
        "zip": 78310
    },
    {
        "address": "Rayon sn col. Centro",
        "city": "san luis potosi",
        "closeHours": "10:51 PM",
        "country": "Mexico",
        "dressCodeID": 4,
        "name": "la parroquia",
        "openHours": "8:03 AM",
        "priceRangeMax": 71,
        "priceRangeMin": 11,
        "restID": 399,
        "state": "san luis potosi",
        "zip": 78038
    },
    {
        "address": "Emiliano Zapata Col. Tres de Mayo",
        "city": "san luis potosi",
        "closeHours": "10:22 PM",
        "country": "mexico",
        "dressCodeID": 5,
        "name": "la parroquia",
        "openHours": "10:02 AM",
        "priceRangeMax": 31,
        "priceRangeMin": 13,
        "restID": 400,
        "state": "san luis potosi",
        "zip": 78433
    },
    {
        "address": "Paseo de las Fuentes",
        "city": "san luis potosi",
        "closeHours": "9:06 PM",
        "country": "mexico",
        "dressCodeID": 5,
        "name": "la parroquia",
        "openHours": "6:12 AM",
        "priceRangeMax": 67,
        "priceRangeMin": 19,
        "restID": 401,
        "state": "san luis potosi",
        "zip": 64000
    },
    {
        "address": "Domingo 10 711 El Empleado",
        "city": "san luis potosi",
        "closeHours": "11:21 PM",
        "country": "Mexico",
        "dressCodeID": 4,
        "name": "la parroquia",
        "openHours": "9:10 AM",
        "priceRangeMax": 92,
        "priceRangeMin": 12,
        "restID": 402,
        "state": "san luis potosi",
        "zip": 78349
    },
    {
        "address": "Pascual M. Hernandez 240",
        "city": "san luis potosi",
        "closeHours": "1:16 PM",
        "country": "Mexico",
        "dressCodeID": 2,
        "name": "la parroquia",
        "openHours": "11:47 AM",
        "priceRangeMax": 55,
        "priceRangeMin": 18,
        "restID": 403,
        "state": "san luis potosi",
        "zip": 62790
    },
    {
        "address": "Ricardo B. Anaya",
        "city": "san luis potosi",
        "closeHours": "6:38 PM",
        "country": "Mexico",
        "dressCodeID": 5,
        "name": "la parroquia",
        "openHours": "2:08 AM",
        "priceRangeMax": 31,
        "priceRangeMin": 20,
        "restID": 404,
        "state": "san luis potosi",
        "zip": 78200
    },
    {
        "address": "Rio Mayo 17 Vista Hermosa",
        "city": "san luis potosi",
        "closeHours": "8:20 PM",
        "country": "Mexico",
        "dressCodeID": 3,
        "name": "la parroquia",
        "openHours": "11:25 AM",
        "priceRangeMax": 97,
        "priceRangeMin": 18,
        "restID": 405,
        "state": "san luis potosi",
        "zip": 78214
    },
    {
        "address": "Plaza del Carmen",
        "city": "san luis potosi",
        "closeHours": "5:56 PM",
        "country": "mexico",
        "dressCodeID": 1,
        "name": "la parroquia",
        "openHours": "2:17 AM",
        "priceRangeMax": 88,
        "priceRangeMin": 18,
        "restID": 406,
        "state": "san luis potosi",
        "zip": 74000
    },
    {
        "address": "r.b. anaya esq. florencia",
        "city": "san luis potosi",
        "closeHours": "4:35 PM",
        "country": "mexico",
        "dressCodeID": 3,
        "name": "la parroquia",
        "openHours": "5:30 AM",
        "priceRangeMax": 52,
        "priceRangeMin": 5,
        "restID": 407,
        "state": "san luis potosi",
        "zip": 78000
    },
    {
        "address": "Ricardo B. Anaya 2700 Estrella de Oriente",
        "city": "san luis potosi",
        "closeHours": "3:05 PM",
        "country": "Mexico",
        "dressCodeID": 1,
        "name": "la parroquia",
        "openHours": "1:31 AM",
        "priceRangeMax": 95,
        "priceRangeMin": 17,
        "restID": 408,
        "state": "san luis potosi",
        "zip": 78210
    },
    {
        "address": "Industrias 908 Valle Dorado",
        "city": "Cd. Victoria",
        "closeHours": "2:04 PM",
        "country": "Mexico",
        "dressCodeID": 2,
        "name": "Gorditas Dona Tota",
        "openHours": "7:13 AM",
        "priceRangeMax": 48,
        "priceRangeMin": 6,
        "restID": 409,
        "state": "SLP",
        "zip": 78396
    },
    {
        "address": "Ignacio Allende 785 Centro",
        "city": "Cd. Victoria",
        "closeHours": "6:33 PM",
        "country": "Mexico",
        "dressCodeID": 4,
        "name": "Gorditas Dona Tota",
        "openHours": "3:17 AM",
        "priceRangeMax": 62,
        "priceRangeMin": 6,
        "restID": 410,
        "state": "S.L.P.",
        "zip": 78395
    },
    {
        "address": "Jesus Goytortua 390 Tangamanga",
        "city": "Cd. Victoria",
        "closeHours": "1:25 PM",
        "country": "Mexico",
        "dressCodeID": 4,
        "name": "Gorditas Dona Tota",
        "openHours": "10:37 AM",
        "priceRangeMax": 26,
        "priceRangeMin": 18,
        "restID": 411,
        "state": null,
        "zip": 78421
    },
    {
        "address": "Ignacio Aldama 300 Centro",
        "city": "Cd. Victoria",
        "closeHours": "2:34 PM",
        "country": "mexico",
        "dressCodeID": 2,
        "name": "Gorditas Dona Tota",
        "openHours": "2:26 AM",
        "priceRangeMax": 88,
        "priceRangeMin": 13,
        "restID": 412,
        "state": "Morelos",
        "zip": 78390
    },
    {
        "address": "Interior Internado Palmira SN",
        "city": "Cd. Victoria",
        "closeHours": "4:36 PM",
        "country": "mexico",
        "dressCodeID": 2,
        "name": "Gorditas Dona Tota",
        "openHours": "5:48 AM",
        "priceRangeMax": 89,
        "priceRangeMin": 15,
        "restID": 413,
        "state": "Tamaulipas",
        "zip": 78399
    },
    {
        "address": "Himno nacional esq. Blvd. Juarez",
        "city": "victoria ",
        "closeHours": "7:09 PM",
        "country": "Mexico",
        "dressCodeID": 2,
        "name": "Gorditas Dona Tota",
        "openHours": "6:17 AM",
        "priceRangeMax": 64,
        "priceRangeMin": 12,
        "restID": 414,
        "state": null,
        "zip": 78349
    },
    {
        "address": "Emiliano Zapata No. 825 Tlaltenongo",
        "city": "Jiutepec",
        "closeHours": "8:47 PM",
        "country": "Mexico",
        "dressCodeID": 1,
        "name": "Los Vikingos",
        "openHours": "3:10 AM",
        "priceRangeMax": 79,
        "priceRangeMin": 20,
        "restID": 415,
        "state": "Morelos",
        "zip": 62290
    },
    {
        "address": "esquina santos degollado y leon guzman",
        "city": "Jiutepec",
        "closeHours": "2:40 PM",
        "country": "Mexico",
        "dressCodeID": 4,
        "name": "Los Vikingos",
        "openHours": "2:53 AM",
        "priceRangeMax": 90,
        "priceRangeMin": 13,
        "restID": 416,
        "state": "Morelos",
        "zip": 62320
    },
    {
        "address": "Estatuto Juridico 1040 Burocratas",
        "city": "Jiutepec",
        "closeHours": "3:19 PM",
        "country": "Mexico",
        "dressCodeID": 4,
        "name": "Los Vikingos",
        "openHours": "3:34 AM",
        "priceRangeMax": 21,
        "priceRangeMin": 17,
        "restID": 417,
        "state": "Morelos",
        "zip": 62460
    },
    {
        "address": "General Mariano Arista 1205 Barrio de Tequisquiap",
        "city": "Cuernavaca",
        "closeHours": "6:42 PM",
        "country": "Mexico",
        "dressCodeID": 4,
        "name": "Arrachela Grill",
        "openHours": "6:06 AM",
        "priceRangeMax": 34,
        "priceRangeMin": 12,
        "restID": 418,
        "state": "Morelos",
        "zip": 78290
    },
    {
        "address": "Francisco I. Madero 215",
        "city": "Cuernavaca",
        "closeHours": "11:34 PM",
        "country": "Mexico",
        "dressCodeID": 5,
        "name": "Arrachela Grill",
        "openHours": "4:32 AM",
        "priceRangeMax": 46,
        "priceRangeMin": 5,
        "restID": 419,
        "state": "Morelos",
        "zip": 62790
    },
    {
        "address": "frente al tecnologico",
        "city": "Cuernavaca",
        "closeHours": "1:19 PM",
        "country": "Mexico",
        "dressCodeID": 3,
        "name": "Arrachela Grill",
        "openHours": "7:52 AM",
        "priceRangeMax": 83,
        "priceRangeMin": 10,
        "restID": 420,
        "state": "Morelos",
        "zip": 78280
    },
    {
        "address": "Julian de Los Reyes 400 Centro",
        "city": "Cuernavaca",
        "closeHours": "5:49 PM",
        "country": "Mexico",
        "dressCodeID": 1,
        "name": "El Oceano Dorado",
        "openHours": "7:45 AM",
        "priceRangeMax": 64,
        "priceRangeMin": 7,
        "restID": 421,
        "state": "Morelos",
        "zip": 78000
    },
    {
        "address": "Interior Internado Palmira SN",
        "city": "Cuernavaca",
        "closeHours": "8:50 PM",
        "country": "Mexico",
        "dressCodeID": 2,
        "name": "El Oceano Dorado",
        "openHours": "4:05 AM",
        "priceRangeMax": 99,
        "priceRangeMin": 6,
        "restID": 422,
        "state": "Morelos",
        "zip": 64000
    },
    {
        "address": "Jesus Goytortua 390 Tangamanga",
        "city": "Cuernavaca",
        "closeHours": "8:06 PM",
        "country": "Mexico",
        "dressCodeID": 4,
        "name": "El Oceano Dorado",
        "openHours": "11:51 AM",
        "priceRangeMax": 97,
        "priceRangeMin": 12,
        "restID": 423,
        "state": "Morelos",
        "zip": 74000
    },
    {
        "address": "Himno Nacional 2104 Tangamanga",
        "city": "Cuernavaca",
        "closeHours": "7:12 PM",
        "country": "Mexico",
        "dressCodeID": 4,
        "name": "El Oceano Dorado",
        "openHours": "1:20 AM",
        "priceRangeMax": 37,
        "priceRangeMin": 12,
        "restID": 424,
        "state": "Morelos",
        "zip": 78433
    },
    {
        "address": "Himno nacional esq. Blvd. Juarez",
        "city": "Cuernavaca",
        "closeHours": "1:03 PM",
        "country": "Mexico",
        "dressCodeID": 5,
        "name": "El Oceano Dorado",
        "openHours": "6:13 AM",
        "priceRangeMax": 67,
        "priceRangeMin": 11,
        "restID": 425,
        "state": "Morelos",
        "zip": 78740
    },
    {
        "address": "Ignacio Allende 785 Centro",
        "city": "Cuernavaca",
        "closeHours": "7:13 PM",
        "country": "Mexico",
        "dressCodeID": 3,
        "name": "El Oceano Dorado",
        "openHours": "11:26 AM",
        "priceRangeMax": 54,
        "priceRangeMin": 18,
        "restID": 426,
        "state": "Morelos",
        "zip": 62790
    },
    {
        "address": "Himno Nacional 100 Avenida",
        "city": "Cuernavaca",
        "closeHours": "2:29 PM",
        "country": "Mexico",
        "dressCodeID": 1,
        "name": "El Oceano Dorado",
        "openHours": "3:57 AM",
        "priceRangeMax": 27,
        "priceRangeMin": 19,
        "restID": 427,
        "state": "Morelos",
        "zip": 78349
    },
    {
        "address": "Industrias 908 Valle Dorado",
        "city": "Cuernavaca",
        "closeHours": "10:46 PM",
        "country": "Mexico",
        "dressCodeID": 4,
        "name": "El Oceano Dorado",
        "openHours": "10:58 AM",
        "priceRangeMax": 60,
        "priceRangeMin": 13,
        "restID": 428,
        "state": "Morelos",
        "zip": 62790
    },
    {
        "address": "Guajardo Sn San Luis Potosi Centro",
        "city": "Cuernavaca",
        "closeHours": "2:08 PM",
        "country": "Mexico",
        "dressCodeID": 5,
        "name": "El Oceano Dorado",
        "openHours": "8:55 AM",
        "priceRangeMax": 80,
        "priceRangeMin": 7,
        "restID": 429,
        "state": "Morelos",
        "zip": 78310
    },
    {
        "address": "Lateral Salvador Nava Martinez 3145",
        "city": "Cuernavaca",
        "closeHours": "4:00 PM",
        "country": "Mexico",
        "dressCodeID": 2,
        "name": "El Oceano Dorado",
        "openHours": "11:38 AM",
        "priceRangeMax": 32,
        "priceRangeMin": 13,
        "restID": 430,
        "state": "Morelos",
        "zip": 78200
    },
    {
        "address": "La Pradera",
        "city": "Cuernavaca",
        "closeHours": "8:52 PM",
        "country": "Mexico",
        "dressCodeID": 3,
        "name": "El Oceano Dorado",
        "openHours": "1:20 AM",
        "priceRangeMax": 50,
        "priceRangeMin": 5,
        "restID": 431,
        "state": "Morelos",
        "zip": 78038
    },
    {
        "address": "Ignacio Aldama 300 Centro",
        "city": "Cuernavaca",
        "closeHours": "3:42 PM",
        "country": "Mexico",
        "dressCodeID": 1,
        "name": "El Oceano Dorado",
        "openHours": "7:52 AM",
        "priceRangeMax": 68,
        "priceRangeMin": 15,
        "restID": 432,
        "state": "Morelos",
        "zip": 79300
    },
    {
        "address": "1a. de Lozada 1",
        "city": "Cd Victoria",
        "closeHours": "1:40 PM",
        "country": "Mexico",
        "dressCodeID": 1,
        "name": "tortas hawai",
        "openHours": "11:21 AM",
        "priceRangeMax": 55,
        "priceRangeMin": 18,
        "restID": 433,
        "state": null,
        "zip": 78433
    },
    {
        "address": "36 Sur Civac",
        "city": "Ciudad Victoria",
        "closeHours": "5:31 PM",
        "country": "Mexico",
        "dressCodeID": 4,
        "name": "tortas hawai",
        "openHours": "1:28 AM",
        "priceRangeMax": 38,
        "priceRangeMin": 17,
        "restID": 434,
        "state": "S.L.P.",
        "zip": 78740
    },
    {
        "address": "20 de Noviembre 1817 Tlaxcala",
        "city": "Cd. Victoria",
        "closeHours": "5:59 PM",
        "country": "Mexico",
        "dressCodeID": 4,
        "name": "tortas hawai",
        "openHours": "1:02 AM",
        "priceRangeMax": 80,
        "priceRangeMin": 8,
        "restID": 435,
        "state": "Morelos",
        "zip": 62000
    },
    {
        "address": "Av. V. Carranza",
        "city": "San Luis Potosi",
        "closeHours": "2:27 PM",
        "country": "Mexico",
        "dressCodeID": 5,
        "name": "El Rincon de San Francisco",
        "openHours": "9:34 AM",
        "priceRangeMax": 95,
        "priceRangeMin": 17,
        "restID": 436,
        "state": "SLP",
        "zip": 78399
    },
    {
        "address": "Av. de los Pintores",
        "city": "San Luis Potosi",
        "closeHours": "11:43 PM",
        "country": "Mexico",
        "dressCodeID": 4,
        "name": "El Rincon de San Francisco",
        "openHours": "5:17 AM",
        "priceRangeMax": 57,
        "priceRangeMin": 17,
        "restID": 437,
        "state": "SLP",
        "zip": 78269
    },
    {
        "address": "Mexico 2015 Providencia",
        "city": "San Luis Potosi",
        "closeHours": "7:14 PM",
        "country": "Mexico",
        "dressCodeID": 3,
        "name": "El Rincon de San Francisco",
        "openHours": "7:45 AM",
        "priceRangeMax": 38,
        "priceRangeMin": 19,
        "restID": 438,
        "state": "SLP",
        "zip": 87018
    },
    {
        "address": "avenida salvador montiel ",
        "city": "San Luis Potosi",
        "closeHours": "2:28 PM",
        "country": "Mexico",
        "dressCodeID": 5,
        "name": "El Rincon de San Francisco",
        "openHours": "8:49 AM",
        "priceRangeMax": 45,
        "priceRangeMin": 18,
        "restID": 439,
        "state": "SLP",
        "zip": 78399
    },
    {
        "address": "Lomas del Mirador",
        "city": "San Luis Potosi",
        "closeHours": "3:25 PM",
        "country": "Mexico",
        "dressCodeID": 5,
        "name": "El Rincon de San Francisco",
        "openHours": "2:26 AM",
        "priceRangeMax": 49,
        "priceRangeMin": 19,
        "restID": 440,
        "state": "SLP",
        "zip": 79300
    },
    {
        "address": "Av. Saan Luis enttre moctezuma y salinas",
        "city": "San Luis Potosi",
        "closeHours": "2:49 PM",
        "country": "Mexico",
        "dressCodeID": 4,
        "name": "El Rincon de San Francisco",
        "openHours": "5:11 AM",
        "priceRangeMax": 39,
        "priceRangeMin": 17,
        "restID": 441,
        "state": "SLP",
        "zip": 78270
    },
    {
        "address": "lic. Emilio portes gil",
        "city": "San Luis Potosi",
        "closeHours": "6:58 PM",
        "country": "Mexico",
        "dressCodeID": 4,
        "name": "El Rincon de San Francisco",
        "openHours": "8:34 AM",
        "priceRangeMax": 91,
        "priceRangeMin": 11,
        "restID": 442,
        "state": "SLP",
        "zip": 78740
    },
    {
        "address": "av. seminario",
        "city": "San Luis Potosi",
        "closeHours": "9:07 PM",
        "country": "Mexico",
        "dressCodeID": 1,
        "name": "El Rincon de San Francisco",
        "openHours": "1:56 AM",
        "priceRangeMax": 75,
        "priceRangeMin": 15,
        "restID": 443,
        "state": "SLP",
        "zip": 78280
    },
    {
        "address": "calle emilio portes gil",
        "city": "San Luis Potosi",
        "closeHours": "8:12 PM",
        "country": "Mexico",
        "dressCodeID": 5,
        "name": "El Rincon de San Francisco",
        "openHours": "3:48 AM",
        "priceRangeMax": 45,
        "priceRangeMin": 6,
        "restID": 444,
        "state": "SLP",
        "zip": 78421
    },
    {
        "address": "Camino a Simon Diaz 155 Centro",
        "city": "San Luis Potosi",
        "closeHours": "8:49 PM",
        "country": "Mexico",
        "dressCodeID": 2,
        "name": "El Rincon de San Francisco",
        "openHours": "4:44 AM",
        "priceRangeMax": 53,
        "priceRangeMin": 6,
        "restID": 445,
        "state": "SLP",
        "zip": 78433
    },
    {
        "address": "Calle Mezquite Fracc Framboyanes",
        "city": "San Luis Potosi",
        "closeHours": "10:33 PM",
        "country": "Mexico",
        "dressCodeID": 4,
        "name": "El Rincon de San Francisco",
        "openHours": "1:04 AM",
        "priceRangeMax": 86,
        "priceRangeMin": 17,
        "restID": 446,
        "state": "SLP",
        "zip": 78430
    },
    {
        "address": "Mexico 810 Centro",
        "city": "San Luis Potosi",
        "closeHours": "8:41 PM",
        "country": "Mexico",
        "dressCodeID": 5,
        "name": "El Rincon de San Francisco",
        "openHours": "10:13 AM",
        "priceRangeMax": 35,
        "priceRangeMin": 15,
        "restID": 447,
        "state": "SLP",
        "zip": 62000
    },
    {
        "address": "Nereo Rodriguez Barragan 450 E Centro",
        "city": "Soledad",
        "closeHours": "9:06 PM",
        "country": "Mexico",
        "dressCodeID": 2,
        "name": "Gordas de morales",
        "openHours": "2:32 AM",
        "priceRangeMax": 42,
        "priceRangeMin": 15,
        "restID": 448,
        "state": null,
        "zip": 78220
    },
    {
        "address": "NICOLAS ZAPATA 300",
        "city": "victoria",
        "closeHours": "11:34 PM",
        "country": "Mexico",
        "dressCodeID": 1,
        "name": "Gordas de morales",
        "openHours": "11:48 AM",
        "priceRangeMax": 69,
        "priceRangeMin": 11,
        "restID": 449,
        "state": null,
        "zip": 78240
    },
    {
        "address": "1a. de Lozada 1",
        "city": "Cd Victoria",
        "closeHours": "9:33 PM",
        "country": "Mexico",
        "dressCodeID": 5,
        "name": "Gordas de morales",
        "openHours": "7:34 AM",
        "priceRangeMax": 72,
        "priceRangeMin": 5,
        "restID": 450,
        "state": "San Luis Potosi",
        "zip": 79300
    },
    {
        "address": "20 de Noviembre 1817 Tlaxcala",
        "city": "Cd. Victoria",
        "closeHours": "8:30 PM",
        "country": "Mexico",
        "dressCodeID": 3,
        "name": "Gordas de morales",
        "openHours": "6:41 AM",
        "priceRangeMax": 36,
        "priceRangeMin": 6,
        "restID": 451,
        "state": "San Luis Potosi",
        "zip": 87018
    },
    {
        "address": "Munoz Sn Centro",
        "city": "slp",
        "closeHours": "8:16 PM",
        "country": "Mexico",
        "dressCodeID": 3,
        "name": "Gordas de morales",
        "openHours": "11:20 AM",
        "priceRangeMax": 44,
        "priceRangeMin": 10,
        "restID": 452,
        "state": "Morelos",
        "zip": 78214
    },
    {
        "address": "Miguel Barragan 46 Centro",
        "city": "san luis potosi ",
        "closeHours": "7:38 PM",
        "country": "Mexico",
        "dressCodeID": 2,
        "name": "Gordas de morales",
        "openHours": "10:41 AM",
        "priceRangeMax": 70,
        "priceRangeMin": 5,
        "restID": 453,
        "state": null,
        "zip": 78210
    },
    {
        "address": "Anahuac 805",
        "city": "san luis potosi ",
        "closeHours": "9:21 PM",
        "country": "Mexico",
        "dressCodeID": 4,
        "name": "Restaurant Orizatlan",
        "openHours": "2:56 AM",
        "priceRangeMax": 45,
        "priceRangeMin": 15,
        "restID": 454,
        "state": null,
        "zip": 62000
    },
    {
        "address": "Mexico 810 Centro",
        "city": "Soledad",
        "closeHours": "7:02 PM",
        "country": "Mexico",
        "dressCodeID": 5,
        "name": "Restaurant Orizatlan",
        "openHours": "8:58 AM",
        "priceRangeMax": 62,
        "priceRangeMin": 7,
        "restID": 455,
        "state": "Morelos",
        "zip": 78421
    },
    {
        "address": "Estatuto Juridico 1040 Burocratas",
        "city": "San Luis Potosi",
        "closeHours": "3:12 PM",
        "country": "Mexico",
        "dressCodeID": 3,
        "name": "Restaurant Orizatlan",
        "openHours": "7:48 AM",
        "priceRangeMax": 35,
        "priceRangeMin": 9,
        "restID": 456,
        "state": "SLP",
        "zip": 62790
    },
    {
        "address": "Federal Mexico - Acapulco 10 3 de Mayo",
        "city": "San Luis Potosi",
        "closeHours": "3:36 PM",
        "country": "Mexico",
        "dressCodeID": 3,
        "name": "Restaurant Orizatlan",
        "openHours": "2:40 AM",
        "priceRangeMax": 96,
        "priceRangeMin": 18,
        "restID": 457,
        "state": "SLP",
        "zip": 62790
    },
    {
        "address": "Alhondiga 62 Centro",
        "city": "San Luis Potosi",
        "closeHours": "6:10 PM",
        "country": "Mexico",
        "dressCodeID": 1,
        "name": "Restaurant Orizatlan",
        "openHours": "1:05 AM",
        "priceRangeMax": 86,
        "priceRangeMin": 17,
        "restID": 458,
        "state": "Tamaulipas",
        "zip": 78433
    },
    {
        "address": "Av. Carranza 830",
        "city": "Soledad",
        "closeHours": "6:32 PM",
        "country": "Mexico",
        "dressCodeID": 1,
        "name": "Restaurant Orizatlan",
        "openHours": "10:13 AM",
        "priceRangeMax": 33,
        "priceRangeMin": 8,
        "restID": 459,
        "state": "Morelos",
        "zip": 79300
    },
    {
        "address": "esquina santos degollado y leon guzman",
        "city": "San Luis Potosi",
        "closeHours": "6:43 PM",
        "country": "Mexico",
        "dressCodeID": 5,
        "name": "Restaurant Orizatlan",
        "openHours": "11:53 AM",
        "priceRangeMax": 35,
        "priceRangeMin": 17,
        "restID": 460,
        "state": "SLP",
        "zip": 79300
    },
    {
        "address": "Mexico 2015 Providencia",
        "city": "slp",
        "closeHours": "7:50 PM",
        "country": "Mexico",
        "dressCodeID": 3,
        "name": "Restaurant Orizatlan",
        "openHours": "8:30 AM",
        "priceRangeMax": 34,
        "priceRangeMin": 8,
        "restID": 461,
        "state": null,
        "zip": 78399
    },
    {
        "address": "Miguel Barragan 46 Centro",
        "city": "victoria",
        "closeHours": "1:07 PM",
        "country": "Mexico",
        "dressCodeID": 4,
        "name": "Restaurant Orizatlan",
        "openHours": "8:05 AM",
        "priceRangeMax": 38,
        "priceRangeMin": 11,
        "restID": 462,
        "state": "S.L.P.",
        "zip": 78430
    },
    {
        "address": "Lomas del Mirador",
        "city": "san luis potosi ",
        "closeHours": "3:29 PM",
        "country": "Mexico",
        "dressCodeID": 1,
        "name": "Restaurant Orizatlan",
        "openHours": "1:57 AM",
        "priceRangeMax": 56,
        "priceRangeMin": 9,
        "restID": 463,
        "state": null,
        "zip": 78396
    },
    {
        "address": "Francisco I. Madero 145 Centro",
        "city": "San Luis Potosi",
        "closeHours": "7:02 PM",
        "country": "Mexico",
        "dressCodeID": 2,
        "name": "Restaurant Orizatlan",
        "openHours": "10:23 AM",
        "priceRangeMax": 30,
        "priceRangeMin": 18,
        "restID": 464,
        "state": "SLP",
        "zip": 64000
    },
    {
        "address": "Angel Veral 328 Altamira",
        "city": "slp",
        "closeHours": "11:32 PM",
        "country": "Mexico",
        "dressCodeID": 5,
        "name": "Restaurant Orizatlan",
        "openHours": "5:28 AM",
        "priceRangeMax": 38,
        "priceRangeMin": 19,
        "restID": 465,
        "state": null,
        "zip": 78740
    },
    {
        "address": "Av. Carranza 830",
        "city": "San Luis Potosi",
        "closeHours": "1:00 PM",
        "country": "Mexico",
        "dressCodeID": 3,
        "name": "La Virreina",
        "openHours": "7:33 AM",
        "priceRangeMax": 25,
        "priceRangeMin": 8,
        "restID": 466,
        "state": "SLP",
        "zip": 78310
    },
    {
        "address": "Av. Carranza 830",
        "city": "San Luis Potosi",
        "closeHours": "6:14 PM",
        "country": "Mexico",
        "dressCodeID": 3,
        "name": "La Virreina",
        "openHours": "8:41 AM",
        "priceRangeMax": 55,
        "priceRangeMin": 14,
        "restID": 467,
        "state": "SLP",
        "zip": 64000
    },
    {
        "address": "Av. Carranza 830",
        "city": "San Luis Potosi",
        "closeHours": "5:00 PM",
        "country": "Mexico",
        "dressCodeID": 3,
        "name": "La Virreina",
        "openHours": "8:01 AM",
        "priceRangeMax": 38,
        "priceRangeMin": 12,
        "restID": 468,
        "state": "SLP",
        "zip": 62000
    },
    {
        "address": "Av. Carranza 830",
        "city": "San Luis Potosi",
        "closeHours": "2:30 PM",
        "country": "Mexico",
        "dressCodeID": 2,
        "name": "La Virreina",
        "openHours": "2:06 AM",
        "priceRangeMax": 68,
        "priceRangeMin": 11,
        "restID": 469,
        "state": "SLP",
        "zip": 62790
    },
    {
        "address": "Av. Carranza 830",
        "city": "San Luis Potosi",
        "closeHours": "3:33 PM",
        "country": "Mexico",
        "dressCodeID": 2,
        "name": "La Virreina",
        "openHours": "2:41 AM",
        "priceRangeMax": 26,
        "priceRangeMin": 19,
        "restID": 470,
        "state": "SLP",
        "zip": 62460
    },
    {
        "address": "Av. Carranza 830",
        "city": "San Luis Potosi",
        "closeHours": "5:11 PM",
        "country": "Mexico",
        "dressCodeID": 5,
        "name": "La Virreina",
        "openHours": "5:48 AM",
        "priceRangeMax": 93,
        "priceRangeMin": 6,
        "restID": 471,
        "state": "SLP",
        "zip": 78349
    },
    {
        "address": "Av. Carranza 830",
        "city": "San Luis Potosi",
        "closeHours": "6:52 PM",
        "country": "Mexico",
        "dressCodeID": 3,
        "name": "La Virreina",
        "openHours": "1:09 AM",
        "priceRangeMax": 68,
        "priceRangeMin": 12,
        "restID": 472,
        "state": "SLP",
        "zip": 78290
    },
    {
        "address": "Av. Carranza 830",
        "city": "San Luis Potosi",
        "closeHours": "8:21 PM",
        "country": "Mexico",
        "dressCodeID": 5,
        "name": "La Virreina",
        "openHours": "6:31 AM",
        "priceRangeMax": 26,
        "priceRangeMin": 11,
        "restID": 473,
        "state": "SLP",
        "zip": 62250
    },
    {
        "address": "Av. Carranza 830",
        "city": "San Luis Potosi",
        "closeHours": "1:41 PM",
        "country": "Mexico",
        "dressCodeID": 1,
        "name": "La Virreina",
        "openHours": "1:05 AM",
        "priceRangeMax": 69,
        "priceRangeMin": 8,
        "restID": 474,
        "state": "SLP",
        "zip": 62290
    },
    {
        "address": "Av. Carranza 830",
        "city": "San Luis Potosi",
        "closeHours": "7:58 PM",
        "country": "Mexico",
        "dressCodeID": 2,
        "name": "La Virreina",
        "openHours": "10:41 AM",
        "priceRangeMax": 68,
        "priceRangeMin": 8,
        "restID": 475,
        "state": "SLP",
        "zip": 62170
    },
    {
        "address": "Av. Carranza 830",
        "city": "San Luis Potosi",
        "closeHours": "10:14 PM",
        "country": "Mexico",
        "dressCodeID": 3,
        "name": "La Virreina",
        "openHours": "1:20 AM",
        "priceRangeMax": 85,
        "priceRangeMin": 11,
        "restID": 476,
        "state": "SLP",
        "zip": 62320
    },
    {
        "address": "Av. Carranza 830",
        "city": "San Luis Potosi",
        "closeHours": "1:39 PM",
        "country": "Mexico",
        "dressCodeID": 4,
        "name": "La Virreina",
        "openHours": "11:12 AM",
        "priceRangeMax": 90,
        "priceRangeMin": 16,
        "restID": 477,
        "state": "SLP",
        "zip": 78280
    },
    {
        "address": "carr. mexico",
        "city": "San Luis Potosi",
        "closeHours": "6:50 PM",
        "country": "Mexico",
        "dressCodeID": 3,
        "name": "Preambulo Wifi Zone Cafe",
        "openHours": "5:23 AM",
        "priceRangeMax": 56,
        "priceRangeMin": 16,
        "restID": 478,
        "state": "SLP",
        "zip": 79300
    },
    {
        "address": "Camino a Simon Diaz 155 Centro",
        "city": "San Luis Potosi",
        "closeHours": "3:30 PM",
        "country": "Mexico",
        "dressCodeID": 2,
        "name": "Preambulo Wifi Zone Cafe",
        "openHours": "1:03 AM",
        "priceRangeMax": 51,
        "priceRangeMin": 11,
        "restID": 479,
        "state": "SLP",
        "zip": 78740
    },
    {
        "address": "avenida salvador montiel ",
        "city": "San Luis Potosi",
        "closeHours": "7:40 PM",
        "country": "Mexico",
        "dressCodeID": 5,
        "name": "Preambulo Wifi Zone Cafe",
        "openHours": "11:17 AM",
        "priceRangeMax": 33,
        "priceRangeMin": 9,
        "restID": 480,
        "state": "SLP",
        "zip": 78430
    },
    {
        "address": "avenida hivno nacional",
        "city": "San Luis Potosi",
        "closeHours": "8:29 PM",
        "country": "Mexico",
        "dressCodeID": 3,
        "name": "Preambulo Wifi Zone Cafe",
        "openHours": "10:12 AM",
        "priceRangeMax": 27,
        "priceRangeMin": 12,
        "restID": 481,
        "state": "SLP",
        "zip": 78421
    },
    {
        "address": "Calle Mezquite Fracc Framboyanes",
        "city": "San Luis Potosi",
        "closeHours": "8:38 PM",
        "country": "Mexico",
        "dressCodeID": 1,
        "name": "Preambulo Wifi Zone Cafe",
        "openHours": "11:34 AM",
        "priceRangeMax": 66,
        "priceRangeMin": 16,
        "restID": 482,
        "state": "SLP",
        "zip": 62000
    },
    {
        "address": "calle emilio portes gil",
        "city": "San Luis Potosi",
        "closeHours": "4:44 PM",
        "country": "Mexico",
        "dressCodeID": 1,
        "name": "Preambulo Wifi Zone Cafe",
        "openHours": "1:23 AM",
        "priceRangeMax": 53,
        "priceRangeMin": 6,
        "restID": 483,
        "state": "SLP",
        "zip": 78433
    },
    {
        "address": "Villa de Pozos 4497 Villa de Pozos",
        "city": "San Luis Potosi",
        "closeHours": "9:35 PM",
        "country": "Mexico",
        "dressCodeID": 4,
        "name": "Cafeteria y Restaurant El Pacifico",
        "openHours": "6:21 AM",
        "priceRangeMax": 67,
        "priceRangeMin": 17,
        "restID": 484,
        "state": "SLP",
        "zip": 79300
    },
    {
        "address": "Tangamanga 7 Tangamanga",
        "city": "San Luis Potosi",
        "closeHours": "2:46 PM",
        "country": "Mexico",
        "dressCodeID": 2,
        "name": "Cafeteria y Restaurant El Pacifico",
        "openHours": "8:56 AM",
        "priceRangeMax": 36,
        "priceRangeMin": 8,
        "restID": 485,
        "state": "SLP",
        "zip": 78310
    },
    {
        "address": "Constitucion 200 Centro",
        "city": "San Luis Potosi",
        "closeHours": "3:40 PM",
        "country": "Mexico",
        "dressCodeID": 1,
        "name": "Cafeteria y Restaurant El Pacifico",
        "openHours": "5:40 AM",
        "priceRangeMax": 37,
        "priceRangeMin": 10,
        "restID": 486,
        "state": "SLP",
        "zip": 62790
    },
    {
        "address": "Venustiano Carranza 303 Centro",
        "city": "San Luis Potosi",
        "closeHours": "10:32 PM",
        "country": "Mexico",
        "dressCodeID": 2,
        "name": "Cafeteria y Restaurant El Pacifico",
        "openHours": "7:35 AM",
        "priceRangeMax": 80,
        "priceRangeMin": 17,
        "restID": 487,
        "state": "SLP",
        "zip": 78421
    },
    {
        "address": "Constitucion 200 Centro",
        "city": "San Luis Potosi",
        "closeHours": "7:13 PM",
        "country": "Mexico",
        "dressCodeID": 3,
        "name": "Cafeteria y Restaurant El Pacifico",
        "openHours": "9:51 AM",
        "priceRangeMax": 53,
        "priceRangeMin": 18,
        "restID": 488,
        "state": "SLP",
        "zip": 64000
    },
    {
        "address": "Venustiano Carranza 719 Centro",
        "city": "San Luis Potosi",
        "closeHours": "6:31 PM",
        "country": "Mexico",
        "dressCodeID": 2,
        "name": "Cafeteria y Restaurant El Pacifico",
        "openHours": "10:51 AM",
        "priceRangeMax": 54,
        "priceRangeMin": 17,
        "restID": 489,
        "state": "SLP",
        "zip": 78433
    },
    {
        "address": "Venustiano Carranza 1625 Jardin",
        "city": "San Luis Potosi",
        "closeHours": "5:11 PM",
        "country": "Mexico",
        "dressCodeID": 1,
        "name": "Cafeteria y Restaurant El Pacifico",
        "openHours": "9:58 AM",
        "priceRangeMax": 60,
        "priceRangeMin": 19,
        "restID": 490,
        "state": "SLP",
        "zip": 78395
    },
    {
        "address": "sevilla y olmedo 715 a",
        "city": "San Luis Potosi",
        "closeHours": "11:32 PM",
        "country": "Mexico",
        "dressCodeID": 5,
        "name": "Cafeteria y Restaurant El Pacifico",
        "openHours": "4:05 AM",
        "priceRangeMax": 63,
        "priceRangeMin": 19,
        "restID": 491,
        "state": "SLP",
        "zip": 78270
    },
    {
        "address": "Venustiano Carranza 2175 Jardin",
        "city": "San Luis Potosi",
        "closeHours": "6:40 PM",
        "country": "Mexico",
        "dressCodeID": 3,
        "name": "Cafeteria y Restaurant El Pacifico",
        "openHours": "6:46 AM",
        "priceRangeMax": 71,
        "priceRangeMin": 17,
        "restID": 492,
        "state": "SLP",
        "zip": 78399
    },
    {
        "address": "Constitucion 200 Centro",
        "city": "San Luis Potosi",
        "closeHours": "10:34 PM",
        "country": "Mexico",
        "dressCodeID": 2,
        "name": "Cafeteria y Restaurant El Pacifico",
        "openHours": "11:16 AM",
        "priceRangeMax": 52,
        "priceRangeMin": 13,
        "restID": 493,
        "state": "SLP",
        "zip": 78214
    },
    {
        "address": "Villa de Pozos 192 Villa de Pozos",
        "city": "San Luis Potosi",
        "closeHours": "4:01 PM",
        "country": "Mexico",
        "dressCodeID": 1,
        "name": "Cafeteria y Restaurant El Pacifico",
        "openHours": "8:02 AM",
        "priceRangeMax": 22,
        "priceRangeMin": 18,
        "restID": 494,
        "state": "SLP",
        "zip": 78740
    },
    {
        "address": "Venustiano Carranza 560 Centro",
        "city": "San Luis Potosi",
        "closeHours": "8:03 PM",
        "country": "Mexico",
        "dressCodeID": 5,
        "name": "Cafeteria y Restaurant El Pacifico",
        "openHours": "8:59 AM",
        "priceRangeMax": 82,
        "priceRangeMin": 11,
        "restID": 495,
        "state": "SLP",
        "zip": 78430
    },
    {
        "address": "Venustiano Carranza 1809 C Polanco",
        "city": "San Luis Potosi",
        "closeHours": "8:25 PM",
        "country": "Mexico",
        "dressCodeID": 1,
        "name": "Cafeteria y Restaurant El Pacifico",
        "openHours": "5:18 AM",
        "priceRangeMax": 34,
        "priceRangeMin": 8,
        "restID": 496,
        "state": "SLP",
        "zip": 78396
    },
    {
        "address": "tampico",
        "city": "San Luis Potosi",
        "closeHours": "6:08 PM",
        "country": "Mexico",
        "dressCodeID": 2,
        "name": "Cafeteria y Restaurant El Pacifico",
        "openHours": "2:48 AM",
        "priceRangeMax": 71,
        "priceRangeMin": 8,
        "restID": 497,
        "state": "SLP",
        "zip": 78290
    },
    {
        "address": "Zaragoza entre Francisco Zarco y Lopez Velarde",
        "city": "San Luis Potosi",
        "closeHours": "2:08 PM",
        "country": "Mexico",
        "dressCodeID": 4,
        "name": "Cafeteria y Restaurant El Pacifico",
        "openHours": "8:02 AM",
        "priceRangeMax": 96,
        "priceRangeMin": 15,
        "restID": 498,
        "state": "SLP",
        "zip": 87018
    },
    {
        "address": "Universidad 169",
        "city": "San Luis Potosi",
        "closeHours": "11:08 PM",
        "country": "Mexico",
        "dressCodeID": 1,
        "name": "Cafeteria y Restaurant El Pacifico",
        "openHours": "3:55 AM",
        "priceRangeMax": 31,
        "priceRangeMin": 11,
        "restID": 499,
        "state": "SLP",
        "zip": 78349
    },
    {
        "address": "venustiano carranza",
        "city": "San Luis Potosi",
        "closeHours": "2:32 PM",
        "country": "Mexico",
        "dressCodeID": 2,
        "name": "Cafeteria y Restaurant El Pacifico",
        "openHours": "2:53 AM",
        "priceRangeMax": 85,
        "priceRangeMin": 8,
        "restID": 500,
        "state": "SLP",
        "zip": 78390
    },
    {
        "address": "95112",
        "city": "CA",
        "closeHours": "14:22",
        "country": "2",
        "dressCodeID": "Heer Parekh",
        "name": "101 E San Fernando St",
        "openHours": "14:24",
        "priceRangeMax": 50,
        "priceRangeMin": 50,
        "restID": 501,
        "state": "United States",
        "zip": "San Jose"
    },
    {
        "address": "95112",
        "city": "CA",
        "closeHours": "14:40",
        "country": "4",
        "dressCodeID": "Misha Mody",
        "name": "101 E San Fernando St",
        "openHours": "14:41",
        "priceRangeMax": 2,
        "priceRangeMin": 2,
        "restID": 502,
        "state": "United States",
        "zip": "San Jose"
    }
]
